$GPGSV,2,1,06,01,31,142,,03,59,073,,04,69,170,,06,29,307,*77
$GPGSV,2,2,06,09,36,210,,12,00,000,*73
$GLGSV,2,1,08,70,28,050,,86,57,188,,73,00,000,,79,10,008,*68
$GLGSV,2,2,08,88,03,331,,87,47,316,,71,76,001,,72,42,247,*63
$GPGSA,A,1,,,,,,,,,,,,,,,*1E
$GPVTG,,T,,M,,N,,K,N*2C
$GPRMC,,V,,,,,,,,,,N*53
$GPGGA,,,,,,0,,,,,,,,*66
$GPGSV,2,1,06,01,31,142,,03,59,073,,04,69,170,,06,29,307,*77
$GPGSV,2,2,06,09,36,210,,12,00,000,*73
$GLGSV,2,1,08,70,28,050,,86,57,188,,73,00,000,,79,10,008,*68
$GLGSV,2,2,08,88,03,331,,87,47,316,,71,76,001,,72,42,247,*63
$GPGSA,A,1,,,,,,,,,,,,,,,*1E
$GPVTG,,T,,M,,N,,K,N*2C
$GPRMC,,V,,,,,,,,,,N*53
$GPGGA,,,,,,0,,,,,,,,*66
$GPGSV,2,1,06,01,31,142,,03,59,073,,04,69,170,,06,29,307,*77
$GPGSV,2,2,06,09,36,210,,12,00,000,*73
$GLGSV,2,1,08,70,28,050,,86,57,188,,73,00,000,,79,10,008,*68
$GLGSV,2,2,08,88,03,331,,87,47,316,,71,76,001,,72,42,247,*63
$GPGSA,A,1,,,,,,,,,,,,,,,*1E
$GPVTG,,T,,M,,N,,K,N*2C
$GPRMC,,V,,,,,,,,,,N*53
$GPGGA,,,,,,0,,,,,,,,*66
$GPGSV,2,1,06,01,31,142,,03,59,073,,04,69,170,,06,29,307,*77
$GPGSV,2,2,06,09,36,210,,12,00,000,*73
$GLGSV,2,1,08,70,28,050,,86,57,188,,73,00,000,,79,10,008,*68
$GLGSV,2,2,08,88,03,331,,87,47,316,,71,76,001,,72,42,247,*63
$GPGSA,A,1,,,,,,,,,,,,,,,*1E
$GPVTG,,T,,M,,N,,K,N*2C
$GPRMC,,V,,,,,,,,,,N*53
$GPGGA,,,,,,0,,,,,,,,*66
$GPGSV,2,1,06,01,31,142,,03,59,073,,04,69,170,,06,29,307,*77
$GPGSV,2,2,06,09,36,210,,12,00,000,*73
$GLGSV,2,1,08,70,28,050,,86,57,188,,73,00,000,,79,10,008,*68
$GLGSV,2,2,08,88,03,331,,87,47,316,,71,76,001,,72,42,247,*63
$GPGSA,A,1,,,,,,,,,,,,,,,*1E
$GPVTG,,T,,M,,N,,K,N*2C
$GPRMC,,V,,,,,,,,,,N*53
$GPGGA,,,,,,0,,,,,,,,*66
$GPGSV,2,1,06,01,31,142,,03,59,073,,04,69,170,,06,29,307,*77
$GPGSV,2,2,06,09,36,210,,12,00,000,*73
$GLGSV,2,1,08,70,28,050,,86,57,188,,73,00,000,,79,10,008,*68
$GLGSV,2,2,08,88,03,331,,87,47,316,,71,76,001,,72,42,247,*63
$GPGSA,A,1,,,,,,,,,,,,,,,*1E
$GPVTG,,T,,M,,N,,K,N*2C
$GPRMC,,V,,,,,,,,,,N*53
$GPGGA,,,,,,0,,,,,,,,*66
$GPGSV,2,1,06,01,31,142,,03,59,073,,04,69,170,,06,29,307,*77
$GPGSV,2,2,06,09,36,210,,12,00,000,*73
$GLGSV,2,1,08,70,28,050,,86,57,188,,73,00,000,,79,10,008,*68
$GLGSV,2,2,08,88,03,331,,87,47,316,,71,76,001,,72,42,247,*63
$GPGSA,A,1,,,,,,,,,,,,,,,*1E
$GPVTG,,T,,M,,N,,K,N*2C
$GPRMC,,V,,,,,,,,,,N*53
$GPGGA,,,,,,0,,,,,,,,*66
$GPGSV,2,1,06,01,31,142,,03,59,073,,04,69,170,,06,29,307,*77
$GPGSV,2,2,06,09,36,210,,12,00,000,*73
$GLGSV,2,1,08,70,28,050,,86,57,188,,73,00,000,,79,10,008,*68
$GLGSV,2,2,08,88,03,331,,87,47,316,,71,76,001,,72,42,247,*63
$GPGSA,A,1,,,,,,,,,,,,,,,*1E
$GPVTG,,T,,M,,N,,K,N*2C
$GPRMC,,V,,,,,,,,,,N*53
$GPGGA,,,,,,0,,,,,,,,*66
$GPGSV,2,1,06,01,31,142,,03,59,073,,04,69,170,,06,29,307,*77
$GPGSV,2,2,06,09,36,210,,12,00,000,*73
$GLGSV,2,1,08,70,28,050,,86,57,188,,73,00,000,,79,10,008,*68
$GLGSV,2,2,08,88,03,331,,87,47,316,,71,76,001,,72,42,247,*63
$GPGSA,A,1,,,,,,,,,,,,,,,*1E
$GPVTG,,T,,M,,N,,K,N*2C
$GPRMC,,V,,,,,,,,,,N*53
$GPGGA,,,,,,0,,,,,,,,*66
$GPGSV,2,1,06,01,31,142,,03,59,073,,04,69,170,,06,29,307,*77
$GPGSV,2,2,06,09,36,210,,12,00,000,*73
$GLGSV,2,1,08,70,28,050,,86,57,188,,73,00,000,,79,10,008,*68
$GLGSV,2,2,08,88,03,331,,87,47,316,,71,76,001,,72,42,247,*63
$GPGSA,A,1,,,,,,,,,,,,,,,*1E
$GPVTG,,T,,M,,N,,K,N*2C
$GPRMC,,V,,,,,,,,,,N*53
$GPGGA,,,,,,0,,,,,,,,*66
$GPGSV,2,1,06,01,31,142,,03,59,073,,04,69,170,,06,29,307,*77
$GPGSV,2,2,06,09,36,210,,12,00,000,*73
$GLGSV,2,1,08,70,28,050,,86,57,188,,73,00,000,,79,10,008,*68
$GLGSV,2,2,08,88,03,331,,87,47,316,,71,76,001,,72,42,247,*63
$GPGSA,A,1,,,,,,,,,,,,,,,*1E
$GPVTG,,T,,M,,N,,K,N*2C
$GPRMC,,V,,,,,,,,,,N*53
$GPGGA,,,,,,0,,,,,,,,*66
$GPGSV,2,1,06,01,31,142,,03,59,073,,04,69,170,,06,29,307,*77
$GPGSV,2,2,06,09,36,210,,12,00,000,*73
$GLGSV,2,1,08,70,28,050,,86,57,188,,73,00,000,,79,10,008,*68
$GLGSV,2,2,08,88,03,331,,87,47,316,,71,76,001,,72,42,247,*63
$GPGSA,A,1,,,,,,,,,,,,,,,*1E
$GPVTG,,T,,M,,N,,K,N*2C
$GPRMC,,V,,,,,,,,,,N*53
$GPGGA,,,,,,0,,,,,,,,*66
$GPGSV,2,1,06,01,31,142,,03,59,073,,04,69,170,,06,29,307,*77
$GPGSV,2,2,06,09,36,210,,12,00,000,*73
$GLGSV,2,1,08,70,28,050,,86,57,188,,73,00,000,,79,10,008,*68
$GLGSV,2,2,08,88,03,331,,87,47,316,,71,76,001,,72,42,247,*63
$GPGSA,A,1,,,,,,,,,,,,,,,*1E
$GPVTG,,T,,M,,N,,K,N*2C
$GPRMC,,V,,,,,,,,,,N*53
$GPGGA,,,,,,0,,,,,,,,*66
$GPGSV,2,1,06,01,31,142,,03,59,073,,04,69,170,,06,29,307,*77
$GPGSV,2,2,06,09,36,210,,12,00,000,*73
$GLGSV,2,1,08,70,28,050,,86,57,188,,73,00,000,,79,10,008,*68
$GLGSV,2,2,08,88,03,331,,87,47,316,,71,76,001,,72,42,247,*63
$GPGSA,A,1,,,,,,,,,,,,,,,*1E
$GPVTG,,T,,M,,N,,K,N*2C
$GPRMC,,V,,,,,,,,,,N*53
$GPGGA,,,,,,0,,,,,,,,*66
$GPGSV,2,1,06,01,31,142,,03,59,073,,04,69,170,,06,29,307,*77
$GPGSV,2,2,06,09,36,210,,12,00,000,*73
$GLGSV,2,1,08,70,28,050,,86,57,188,,73,00,000,,79,10,008,*68
$GLGSV,2,2,08,88,03,331,,87,47,316,,71,76,001,,72,42,247,*63
$GPGSA,A,1,,,,,,,,,,,,,,,*1E
$GPVTG,,T,,M,,N,,K,N*2C
$GPRMC,,V,,,,,,,,,,N*53
$GPGGA,,,,,,0,,,,,,,,*66
$GPGSV,2,1,06,01,31,142,,03,59,073,,04,69,170,,06,29,307,*77
$GPGSV,2,2,06,09,36,210,,12,00,000,*73
$GLGSV,2,1,08,70,28,050,,86,57,188,,73,00,000,,79,10,008,*68
$GLGSV,2,2,08,88,03,331,,87,47,316,,71,76,001,,72,42,247,*63
$GPGSA,A,1,,,,,,,,,,,,,,,*1E
$GPVTG,,T,,M,,N,,K,N*2C
$GPRMC,,V,,,,,,,,,,N*53
$GPGGA,,,,,,0,,,,,,,,*66
$GPGSV,2,1,06,01,31,142,,03,59,073,,04,69,170,,06,29,307,*77
$GPGSV,2,2,06,09,36,210,,12,00,000,*73
$GLGSV,2,1,08,70,28,050,,86,57,188,,73,00,000,,79,10,008,*68
$GLGSV,2,2,08,88,03,331,,87,47,316,,71,76,001,,72,42,247,*63
$GPGSA,A,1,,,,,,,,,,,,,,,*1E
$GPVTG,,T,,M,,N,,K,N*2C
$GPRMC,,V,,,,,,,,,,N*53
$GPGGA,,,,,,0,,,,,,,,*66
$GPGSV,2,1,06,01,31,142,,03,59,073,,04,69,170,,06,29,307,*77
$GPGSV,2,2,06,09,36,210,,12,00,000,*73
$GLGSV,2,1,08,70,28,050,,86,57,188,,73,00,000,,79,10,008,*68
$GLGSV,2,2,08,88,03,331,,87,47,316,,71,76,001,,72,42,247,*63
$GPGSA,A,1,,,,,,,,,,,,,,,*1E
$GPVTG,,T,,M,,N,,K,N*2C
$GPRMC,,V,,,,,,,,,,N*53
$GPGGA,,,,,,0,,,,,,,,*66
$GPGSV,2,1,06,01,31,142,,03,59,073,,04,69,170,,06,29,307,*77
$GPGSV,2,2,06,09,36,210,,12,00,000,*73
$GLGSV,2,1,08,70,28,050,,86,57,188,,73,00,000,,79,10,008,*68
$GLGSV,2,2,08,88,03,331,,87,47,316,,71,76,001,,72,42,247,*63
$GPGSA,A,1,,,,,,,,,,,,,,,*1E
$GPVTG,,T,,M,,N,,K,N*2C
$GPRMC,,V,,,,,,,,,,N*53
$GPGGA,,,,,,0,,,,,,,,*66
$GPGSV,2,1,06,01,31,142,,03,59,073,,04,69,170,,06,29,307,*77
$GPGSV,2,2,06,09,36,210,,12,00,000,*73
$GLGSV,2,1,08,70,28,050,,86,57,188,,73,00,000,,79,10,008,*68
$GLGSV,2,2,08,88,03,331,,87,47,316,,71,76,001,,72,42,247,*63
$GPGSA,A,1,,,,,,,,,,,,,,,*1E
$GPVTG,,T,,M,,N,,K,N*2C
$GPRMC,,V,,,,,,,,,,N*53
$GPGGA,,,,,,0,,,,,,,,*66
$GPGSV,2,1,06,01,31,142,,03,59,073,,04,69,170,,06,29,307,*77
$GPGSV,2,2,06,09,36,210,,12,00,000,*73
$GLGSV,2,1,08,70,28,050,,86,57,188,,73,00,000,,79,10,008,*68
$GLGSV,2,2,08,88,03,331,,87,47,316,,71,76,001,,72,42,247,*63
$GPGSA,A,1,,,,,,,,,,,,,,,*1E
$GPVTG,,T,,M,,N,,K,N*2C
$GPRMC,,V,,,,,,,,,,N*53
$GPGGA,,,,,,0,,,,,,,,*66
$GPGSV,2,1,06,01,31,142,,03,59,073,,04,69,170,,06,29,307,*77
$GPGSV,2,2,06,09,36,210,,12,00,000,*73
$GLGSV,2,1,08,70,28,050,,86,57,188,,73,00,000,,79,10,008,*68
$GLGSV,2,2,08,88,03,331,,87,47,316,,71,76,001,,72,42,247,*63
$GPGSA,A,1,,,,,,,,,,,,,,,*1E
$GPVTG,,T,,M,,N,,K,N*2C
$GPRMC,,V,,,,,,,,,,N*53
$GPGGA,,,,,,0,,,,,,,,*66
$GPGSV,2,1,06,01,31,142,,03,59,073,,04,69,170,,06,29,307,*77
$GPGSV,2,2,06,09,36,210,,12,00,000,*73
$GLGSV,2,1,08,70,28,050,,86,57,188,,73,00,000,,79,10,008,*68
$GLGSV,2,2,08,88,03,331,,87,47,316,,71,76,001,,72,42,247,*63
$GPGSA,A,1,,,,,,,,,,,,,,,*1E
$GPVTG,,T,,M,,N,,K,N*2C
$GPRMC,,V,,,,,,,,,,N*53
$GPGGA,,,,,,0,,,,,,,,*66
$GPGSV,2,1,06,01,31,142,,03,59,073,,04,69,170,,06,29,307,*77
$GPGSV,2,2,06,09,36,210,,12,00,000,*73
$GLGSV,2,1,08,70,28,050,,86,57,188,,73,00,000,,79,10,008,*68
$GLGSV,2,2,08,88,03,331,,87,47,316,,71,76,001,,72,42,247,*63
$GPGSA,A,1,,,,,,,,,,,,,,,*1E
$GPVTG,,T,,M,,N,,K,N*2C
$GPRMC,,V,,,,,,,,,,N*53
$GPGGA,,,,,,0,,,,,,,,*66
$GPGSV,2,1,06,01,31,142,,03,59,073,,04,69,170,,06,29,307,*77
$GPGSV,2,2,06,09,36,210,,12,00,000,*73
$GLGSV,2,1,08,70,28,050,,86,57,188,,73,00,000,,79,10,008,*68
$GLGSV,2,2,08,88,03,331,,87,47,316,,71,76,001,,72,42,247,*63
$GPGSA,A,1,,,,,,,,,,,,,,,*1E
$GPVTG,,T,,M,,N,,K,N*2C
$GPRMC,,V,,,,,,,,,,N*53
$GPGGA,,,,,,0,,,,,,,,*66
$GPGSV,2,1,06,01,31,142,,03,59,073,,04,69,170,,06,29,307,*77
$GPGSV,2,2,06,09,36,210,,12,00,000,*73
$GLGSV,2,1,08,70,28,050,,86,57,188,,73,00,000,,79,10,008,*68
$GLGSV,2,2,08,88,03,331,,87,47,316,,71,76,001,,72,42,247,*63
$GPGSA,A,1,,,,,,,,,,,,,,,*1E
$GPVTG,,T,,M,,N,,K,N*2C
$GPRMC,,V,,,,,,,,,,N*53
$GPGGA,,,,,,0,,,,,,,,*66
$GPGSV,2,1,06,01,31,142,,03,59,073,,04,69,170,,06,29,307,*77
$GPGSV,2,2,06,09,36,210,,12,00,000,*73
$GLGSV,2,1,08,70,28,050,,86,57,188,,73,00,000,,79,10,008,*68
$GLGSV,2,2,08,88,03,331,,87,47,316,,71,76,001,,72,42,247,*63
$GPGSA,A,1,,,,,,,,,,,,,,,*1E
$GPVTG,,T,,M,,N,,K,N*2C
$GPRMC,,V,,,,,,,,,,N*53
$GPGGA,,,,,,0,,,,,,,,*66
$GPGSV,2,1,06,01,31,142,,03,59,073,,04,69,170,,06,29,307,*77
$GPGSV,2,2,06,09,36,210,,12,00,000,*73
$GLGSV,2,1,08,70,28,050,,86,57,188,,73,00,000,,79,10,008,*68
$GLGSV,2,2,08,88,03,331,,87,47,316,,71,76,001,,72,42,247,*63
$GPGSA,A,1,,,,,,,,,,,,,,,*1E
$GPVTG,,T,,M,,N,,K,N*2C
$GPRMC,,V,,,,,,,,,,N*53
$GPGGA,,,,,,0,,,,,,,,*66
$GPGSV,2,1,06,01,31,142,,03,59,073,,04,69,170,,06,29,307,*77
$GPGSV,2,2,06,09,36,210,,12,00,000,*73
$GLGSV,2,1,08,70,28,050,,86,57,188,,73,00,000,,79,10,008,*68
$GLGSV,2,2,08,88,03,331,,87,47,316,,71,76,001,,72,42,247,*63
$GPGSA,A,1,,,,,,,,,,,,,,,*1E
$GPVTG,,T,,M,,N,,K,N*2C
$GPRMC,,V,,,,,,,,,,N*53
$GPGGA,,,,,,0,,,,,,,,*66
$GPGSV,2,1,06,01,31,142,,03,59,073,,04,69,170,,06,29,307,*77
$GPGSV,2,2,06,09,36,210,,12,00,000,*73
$GLGSV,2,1,08,70,28,050,,86,57,188,,73,00,000,,79,10,008,*68
$GLGSV,2,2,08,88,03,331,,87,47,316,,71,76,001,,72,42,247,*63
$GPGSA,A,1,,,,,,,,,,,,,,,*1E
$GPVTG,,T,,M,,N,,K,N*2C
$GPRMC,,V,,,,,,,,,,N*53
$GPGGA,,,,,,0,,,,,,,,*66
$GPGSV,2,1,06,01,31,142,,03,59,073,,04,69,170,,06,29,307,*77
$GPGSV,2,2,06,09,36,210,,12,00,000,*73
$GLGSV,2,1,08,70,28,050,,86,57,188,,73,00,000,,79,10,008,*68
$GLGSV,2,2,08,88,03,331,,87,47,316,,71,76,001,,72,42,247,*63
$GPGSA,A,1,,,,,,,,,,,,,,,*1E
$GPVTG,,T,,M,,N,,K,N*2C
$GPRMC,,V,,,,,,,,,,N*53
$GPGGA,,,,,,0,,,,,,,,*66
$GPGSV,2,1,06,01,31,142,,03,59,073,,04,69,170,,06,29,307,*77
$GPGSV,2,2,06,09,36,210,,12,00,000,*73
$GLGSV,2,1,08,70,28,050,,86,57,188,,73,00,000,,79,10,008,*68
$GLGSV,2,2,08,88,03,331,,87,47,316,,71,76,001,,72,42,247,*63
$GPGSA,A,1,,,,,,,,,,,,,,,*1E
$GPVTG,,T,,M,,N,,K,N*2C
$GPRMC,,V,,,,,,,,,,N*53
$GPGGA,,,,,,0,,,,,,,,*66
$GPGSV,2,1,06,01,31,142,,03,59,073,,04,69,170,,06,29,307,*77
$GPGSV,2,2,06,09,36,210,,12,00,000,*73
$GLGSV,2,1,08,70,28,050,,86,57,188,,73,00,000,,79,10,008,*68
$GLGSV,2,2,08,88,03,331,,87,47,316,,71,76,001,,72,42,247,*63
$GPGSA,A,1,,,,,,,,,,,,,,,*1E
$GPVTG,,T,,M,,N,,K,N*2C
$GPRMC,,V,,,,,,,,,,N*53
$GPGGA,,,,,,0,,,,,,,,*66
$GPGSV,2,1,06,01,31,142,,03,59,073,,04,69,170,,06,29,307,*77
$GPGSV,2,2,06,09,36,210,,12,00,000,*73
$GLGSV,2,1,08,70,28,050,,86,57,188,,73,00,000,,79,10,008,*68
$GLGSV,2,2,08,88,03,331,,87,47,316,,71,76,001,,72,42,247,*63
$GPGSA,A,1,,,,,,,,,,,,,,,*1E
$GPVTG,,T,,M,,N,,K,N*2C
$GPRMC,,V,,,,,,,,,,N*53
$GPGGA,,,,,,0,,,,,,,,*66
$GPGSV,2,1,06,01,31,142,,03,59,073,,04,69,170,,06,29,307,*77
$GPGSV,2,2,06,09,36,210,,12,00,000,*73
$GLGSV,2,1,08,70,28,050,,86,57,188,,73,00,000,,79,10,008,*68
$GLGSV,2,2,08,88,03,331,,87,47,316,,71,76,001,,72,42,247,*63
$GPGSA,A,1,,,,,,,,,,,,,,,*1E
$GPVTG,,T,,M,,N,,K,N*2C
$GPRMC,,V,,,,,,,,,,N*53
$GPGGA,,,,,,0,,,,,,,,*66
$GPGSV,2,1,06,01,31,142,,03,59,073,,04,69,170,,06,29,307,*77
$GPGSV,2,2,06,09,36,210,,12,00,000,*73
$GLGSV,2,1,08,70,28,050,,86,57,188,,73,00,000,,79,10,008,*68
$GLGSV,2,2,08,88,03,331,,87,47,316,,71,76,001,,72,42,247,*63
$GPGSA,A,1,,,,,,,,,,,,,,,*1E
$GPVTG,,T,,M,,N,,K,N*2C
$GPRMC,,V,,,,,,,,,,N*53
$GPGGA,,,,,,0,,,,,,,,*66
$GPGSV,2,1,06,01,31,142,,03,59,073,,04,69,170,,06,29,307,*77
$GPGSV,2,2,06,09,36,210,,12,00,000,*73
$GLGSV,2,1,08,70,28,050,,86,57,188,,73,00,000,,79,10,008,*68
$GLGSV,2,2,08,88,03,331,,87,47,316,,71,76,001,,72,42,247,*63
$GPGSA,A,1,,,,,,,,,,,,,,,*1E
$GPVTG,,T,,M,,N,,K,N*2C
$GPRMC,,V,,,,,,,,,,N*53
$GPGGA,,,,,,0,,,,,,,,*66
$GPGSV,2,1,06,01,31,142,,03,59,073,,04,69,170,,06,29,307,*77
$GPGSV,2,2,06,09,36,210,,12,00,000,*73
$GLGSV,2,1,08,70,28,050,,86,57,188,,73,00,000,,79,10,008,*68
$GLGSV,2,2,08,88,03,331,,87,47,316,,71,76,001,,72,42,247,*63
$GPGSA,A,1,,,,,,,,,,,,,,,*1E
$GPVTG,,T,,M,,N,,K,N*2C
$GPRMC,,V,,,,,,,,,,N*53
$GPGGA,,,,,,0,,,,,,,,*66
$GPGSV,2,1,06,01,31,142,,03,59,073,,04,69,170,,06,29,307,*77
$GPGSV,2,2,06,09,36,210,,12,00,000,*73
$GLGSV,2,1,08,70,28,050,,86,57,188,,73,00,000,,79,10,008,*68
$GLGSV,2,2,08,88,03,331,,87,47,316,,71,76,001,,72,42,247,*63
$GPGSA,A,1,,,,,,,,,,,,,,,*1E
$GPVTG,,T,,M,,N,,K,N*2C
$GPRMC,,V,,,,,,,,,,N*53
$GPGGA,,,,,,0,,,,,,,,*66
$GPGSV,2,1,06,01,31,142,,03,59,073,,04,69,170,,06,29,307,*77
$GPGSV,2,2,06,09,36,210,,12,00,000,*73
$GLGSV,2,1,08,70,28,050,,86,57,188,,73,00,000,,79,10,008,*68
$GLGSV,2,2,08,88,03,331,,87,47,316,,71,76,001,,72,42,247,*63
$GPGSA,A,1,,,,,,,,,,,,,,,*1E
$GPVTG,,T,,M,,N,,K,N*2C
$GPRMC,,V,,,,,,,,,,N*53
$GPGGA,,,,,,0,,,,,,,,*66
$GPGSV,2,1,06,01,31,142,,03,59,073,,04,69,170,,06,29,307,*77
$GPGSV,2,2,06,09,36,210,,12,00,000,*73
$GLGSV,2,1,08,70,28,050,,86,57,188,,73,00,000,,79,10,008,*68
$GLGSV,2,2,08,88,03,331,,87,47,316,,71,76,001,,72,42,247,*63
$GPGSA,A,1,,,,,,,,,,,,,,,*1E
$GPVTG,,T,,M,,N,,K,N*2C
$GPRMC,,V,,,,,,,,,,N*53
$GPGGA,,,,,,0,,,,,,,,*66
$GPGSV,2,1,06,01,31,142,,03,59,073,,04,69,170,,06,29,307,*77
$GPGSV,2,2,06,09,36,210,,12,00,000,*73
$GLGSV,2,1,08,70,28,050,,86,57,188,,73,00,000,,79,10,008,*68
$GLGSV,2,2,08,88,03,331,,87,47,316,,71,76,001,,72,42,247,*63
$GPGSA,A,1,,,,,,,,,,,,,,,*1E
$GPVTG,,T,,M,,N,,K,N*2C
$GPRMC,,V,,,,,,,,,,N*53
$GPGGA,,,,,,0,,,,,,,,*66
$GPGSV,2,1,06,01,31,142,,03,59,073,,04,69,170,,06,29,307,*77
$GPGSV,2,2,06,09,36,210,,12,00,000,*73
$GLGSV,2,1,08,70,28,050,,86,57,188,,73,00,000,,79,10,008,*68
$GLGSV,2,2,08,88,03,331,,87,47,316,,71,76,001,,72,42,247,*63
$GPGSA,A,1,,,,,,,,,,,,,,,*1E
$GPVTG,,T,,M,,N,,K,N*2C
$GPRMC,,V,,,,,,,,,,N*53
$GPGGA,,,,,,0,,,,,,,,*66
$GPGSV,2,1,06,01,31,142,,03,59,073,,04,69,170,,06,29,307,*77
$GPGSV,2,2,06,09,36,210,,12,00,000,*73
$GLGSV,2,1,08,70,28,050,,86,57,188,,73,00,000,,79,10,008,*68
$GLGSV,2,2,08,88,03,331,,87,47,316,,71,76,001,,72,42,247,*63
$GPGSA,A,1,,,,,,,,,,,,,,,*1E
$GPVTG,,T,,M,,N,,K,N*2C
$GPRMC,,V,,,,,,,,,,N*53
$GPGGA,,,,,,0,,,,,,,,*66
$GPGSV,2,1,06,01,31,142,,03,59,073,,04,69,170,,06,29,307,*77
$GPGSV,2,2,06,09,36,210,,12,00,000,*73
$GLGSV,2,1,08,70,28,050,,86,57,188,,73,00,000,,79,10,008,*68
$GLGSV,2,2,08,88,03,331,,87,47,316,,71,76,001,,72,42,247,*63
$GPGSA,A,1,,,,,,,,,,,,,,,*1E
$GPVTG,,T,,M,,N,,K,N*2C
$GPRMC,,V,,,,,,,,,,N*53
$GPGGA,,,,,,0,,,,,,,,*66
$GPGSV,2,1,06,01,31,142,,03,59,073,,04,69,170,,06,29,307,*77
$GPGSV,2,2,06,09,36,210,,12,00,000,*73
$GLGSV,2,1,08,70,28,050,,86,57,188,,73,00,000,,79,10,008,*68
$GLGSV,2,2,08,88,03,331,,87,47,316,,71,76,001,,72,42,247,*63
$GPGSA,A,1,,,,,,,,,,,,,,,*1E
$GPVTG,,T,,M,,N,,K,N*2C
$GPRMC,,V,,,,,,,,,,N*53
$GPGGA,,,,,,0,,,,,,,,*66
$GPGSV,2,1,06,01,31,142,,03,59,073,,04,69,170,,06,29,307,*77
$GPGSV,2,2,06,09,36,210,,12,00,000,*73
$GLGSV,2,1,08,70,28,050,,86,57,188,,73,00,000,,79,10,008,*68
$GLGSV,2,2,08,88,03,331,,87,47,316,,71,76,001,,72,42,247,*63
$GPGSA,A,1,,,,,,,,,,,,,,,*1E
$GPVTG,,T,,M,,N,,K,N*2C
$GPRMC,,V,,,,,,,,,,N*53
$GPGGA,,,,,,0,,,,,,,,*66
$GPGSV,2,1,06,01,31,142,,03,59,073,,04,69,170,,06,29,307,*77
$GPGSV,2,2,06,09,36,210,,12,00,000,*73
$GLGSV,2,1,08,70,28,050,,86,57,188,,73,00,000,,79,10,008,*68
$GLGSV,2,2,08,88,03,331,,87,47,316,,71,76,001,,72,42,247,*63
$GPGSA,A,1,,,,,,,,,,,,,,,*1E
$GPVTG,,T,,M,,N,,K,N*2C
$GPRMC,,V,,,,,,,,,,N*53
$GPGGA,,,,,,0,,,,,,,,*66
$GPGSV,2,1,06,01,31,142,,03,59,073,,04,69,170,,06,29,307,*77
$GPGSV,2,2,06,09,36,210,,12,00,000,*73
$GLGSV,2,1,08,70,28,050,,86,57,188,,73,00,000,,79,10,008,*68
$GLGSV,2,2,08,88,03,331,,87,47,316,,71,76,001,,72,42,247,*63
$GPGSA,A,1,,,,,,,,,,,,,,,*1E
$GPVTG,,T,,M,,N,,K,N*2C
$GPRMC,,V,,,,,,,,,,N*53
$GPGGA,,,,,,0,,,,,,,,*66
$GPGSV,2,1,06,01,31,142,,03,59,073,,04,69,170,,06,29,307,*77
$GPGSV,2,2,06,09,36,210,,12,00,000,*73
$GLGSV,2,1,08,70,28,050,,86,57,188,,73,00,000,,79,10,008,*68
$GLGSV,2,2,08,88,03,331,,87,47,316,,71,76,001,,72,42,247,*63
$GPGSA,A,1,,,,,,,,,,,,,,,*1E
$GPVTG,,T,,M,,N,,K,N*2C
$GPRMC,,V,,,,,,,,,,N*53
$GPGGA,,,,,,0,,,,,,,,*66
$GPGSV,2,1,06,01,31,142,,03,59,073,,04,69,170,,06,29,307,*77
$GPGSV,2,2,06,09,36,210,,12,00,000,*73
$GLGSV,2,1,08,70,26,050,,86,56,188,,73,01,106,,79,10,008,*61
$GLGSV,2,2,08,88,04,331,,87,48,314,,71,75,004,,72,43,247,*6E
$GPGSA,A,1,,,,,,,,,,,,,,,*1E
$GPVTG,,T,,M,,N,,K,N*2C
$GPRMC,,V,,,,,,,,,,N*53
$GPGGA,,,,,,0,,,,,,,,*66
$GPGSV,2,1,06,01,31,142,,03,59,073,,04,69,170,,06,29,307,*77
$GPGSV,2,2,06,09,36,210,,12,00,000,*73
$GLGSV,2,1,08,70,26,050,,86,56,188,,73,01,106,,79,10,008,*61
$GLGSV,2,2,08,88,04,331,,87,48,314,,71,75,004,,72,43,247,*6E
$GPGSA,A,1,,,,,,,,,,,,,,,*1E
$GPVTG,,T,,M,,N,,K,N*2C
$GPRMC,,V,,,,,,,,,,N*53
$GPGGA,,,,,,0,,,,,,,,*66
$GPGSV,2,1,06,01,31,142,,03,59,073,,04,69,170,,06,29,307,*77
$GPGSV,2,2,06,09,36,210,,12,00,000,*73
$GLGSV,2,1,08,70,26,050,,86,56,188,,73,01,106,,79,10,008,*61
$GLGSV,2,2,08,88,04,331,,87,48,314,,71,75,004,,72,43,247,*6E
$GPGSA,A,1,,,,,,,,,,,,,,,*1E
$GPVTG,,T,,M,,N,,K,N*2C
$GPRMC,,V,,,,,,,,,,N*53
$GPGGA,,,,,,0,,,,,,,,*66
$GPGSV,2,1,06,01,30,142,,03,58,074,,04,70,168,,06,30,307,*79
$GPGSV,2,2,06,09,37,210,,12,00,000,*72
$GLGSV,2,1,08,70,26,050,,86,56,188,,73,01,106,,79,10,008,*61
$GLGSV,2,2,08,88,04,331,,87,48,314,,71,75,004,,72,43,247,*6E
$GPGSA,A,1,,,,,,,,,,,,,,,*1E
$GPVTG,,T,,M,,N,,K,N*2C
$GPRMC,,V,,,,,,,,,,N*53
$GPGGA,,,,,,0,,,,,,,,*66
$GPGSV,2,1,06,01,30,142,,03,58,074,,04,70,168,,06,30,307,*79
$GPGSV,2,2,06,09,37,210,,12,00,000,*72
$GLGSV,2,1,08,70,26,050,,86,56,188,,73,01,106,,79,10,008,*61
$GLGSV,2,2,08,88,04,331,,87,48,314,,71,75,004,,72,43,247,*6E
$GPGSA,A,1,,,,,,,,,,,,,,,*1E
$GPVTG,,T,,M,,N,,K,N*2C
$GPRMC,,V,,,,,,,,,,N*53
$GPGGA,,,,,,0,,,,,,,,*66
$GPGSV,2,1,06,01,30,142,,03,58,074,,04,70,168,,06,30,307,*79
$GPGSV,2,2,06,09,37,210,,12,00,000,*72
$GLGSV,2,1,08,70,26,050,,86,56,188,,73,01,106,,79,10,008,*61
$GLGSV,2,2,08,88,04,331,,87,48,314,,71,75,004,,72,43,247,*6E
$GPGSA,A,1,,,,,,,,,,,,,,,*1E
$GPVTG,,T,,M,,N,,K,N*2C
$GPRMC,,V,,,,,,,,,,N*53
$GPGGA,,,,,,0,,,,,,,,*66
$GPGSV,2,1,06,01,30,142,,03,58,074,,04,70,168,,06,30,307,*79
$GPGSV,2,2,06,09,37,210,,12,00,000,*72
$GLGSV,2,1,08,70,26,050,,86,56,188,,73,01,106,,79,10,008,*61
$GLGSV,2,2,08,88,04,331,,87,48,314,,71,75,004,,72,43,247,*6E
$GPGSA,A,1,,,,,,,,,,,,,,,*1E
$GPVTG,,T,,M,,N,,K,N*2C
$GPRMC,,V,,,,,,,,,,N*53
$GPGGA,,,,,,0,,,,,,,,*66
$GPGSV,2,1,06,01,30,142,,03,58,074,,04,70,168,,06,30,307,*79
$GPGSV,2,2,06,09,37,210,,12,00,000,*72
$GLGSV,2,1,08,70,26,050,,86,56,188,,73,01,106,,79,10,008,*61
$GLGSV,2,2,08,88,04,331,,87,48,314,,71,75,004,,72,43,247,*6E
$GPGSA,A,1,,,,,,,,,,,,,,,*1E
$GPVTG,,T,,M,,N,,K,N*2C
$GPRMC,,V,,,,,,,,,,N*53
$GPGGA,,,,,,0,,,,,,,,*66
$GPGSV,2,1,06,01,30,142,,03,58,074,,04,70,168,,06,30,307,*79
$GPGSV,2,2,06,09,37,210,,12,00,000,*72
$GLGSV,2,1,08,70,26,050,,86,56,188,,73,01,106,,79,10,008,*61
$GLGSV,2,2,08,88,04,331,,87,48,314,,71,75,004,,72,43,247,*6E
$GPGSA,A,1,,,,,,,,,,,,,,,*1E
$GPVTG,,T,,M,,N,,K,N*2C
$GPRMC,,V,,,,,,,,,,N*53
$GPGGA,,,,,,0,,,,,,,,*66
$GPGSV,2,1,06,01,30,142,,03,58,074,,04,70,168,,06,30,307,*79
$GPGSV,2,2,06,09,37,210,,12,00,000,*72
$GLGSV,2,1,08,70,26,050,,86,56,188,,73,01,106,,79,10,008,*61
$GLGSV,2,2,08,88,04,331,,87,48,314,,71,75,004,,72,43,247,*6E
$GPGSA,A,1,,,,,,,,,,,,,,,*1E
$GPVTG,,T,,M,,N,,K,N*2C
$GPRMC,,V,,,,,,,,,,N*53
$GPGGA,,,,,,0,,,,,,,,*66
$GPGSV,2,1,05,01,30,142,,03,58,074,,04,70,168,,06,30,307,*7A
$GPGSV,2,2,05,09,37,210,*42
$GLGSV,2,1,08,70,26,050,,86,56,188,,73,01,106,,79,10,008,*61
$GLGSV,2,2,08,88,04,331,,87,48,314,,71,75,004,,72,43,247,*6E
$GPGSA,A,1,,,,,,,,,,,,,,,*1E
$GPVTG,,T,,M,,N,,K,N*2C
$GPRMC,,V,,,,,,,,,,N*53
$GPGGA,,,,,,0,,,,,,,,*66
$GPGSV,2,1,06,01,30,142,,03,58,074,,04,70,168,,06,30,307,*79
$GPGSV,2,2,06,09,37,210,,12,00,000,*72
$GLGSV,2,1,08,70,26,050,,86,56,188,,73,01,106,,79,10,008,*61
$GLGSV,2,2,08,88,04,331,,87,48,314,,71,75,004,,72,43,247,*6E
$GPGSA,A,1,,,,,,,,,,,,,,,*1E
$GPVTG,,T,,M,,N,,K,N*2C
$GPRMC,,V,,,,,,,,,,N*53
$GPGGA,,,,,,0,,,,,,,,*66
$GPGSV,2,1,06,01,30,142,,03,58,074,,04,70,168,,06,30,307,*79
$GPGSV,2,2,06,09,37,210,,12,00,000,*72
$GLGSV,2,1,08,70,26,050,,86,56,188,,73,01,106,,79,10,008,*61
$GLGSV,2,2,08,88,04,331,,87,48,314,,71,75,004,,72,43,247,*6E
$GPGSA,A,1,,,,,,,,,,,,,,,*1E
$GPVTG,,T,,M,,N,,K,N*2C
$GPRMC,,V,,,,,,,,,,N*53
$GPGGA,,,,,,0,,,,,,,,*66
$GPGSV,2,1,06,01,30,142,,03,58,074,,04,70,168,,06,30,307,*79
$GPGSV,2,2,06,09,37,210,,12,00,000,*72
$GLGSV,2,1,08,70,26,050,,86,56,188,,73,01,106,,79,10,008,*61
$GLGSV,2,2,08,88,04,331,,87,48,314,,71,75,004,,72,43,247,*6E
$GPGSA,A,1,,,,,,,,,,,,,,,*1E
$GPVTG,,T,,M,,N,,K,N*2C
$GPRMC,,V,,,,,,,,,,N*53
$GPGGA,,,,,,0,,,,,,,,*66
$GPGSV,2,1,06,01,30,142,,03,58,074,,04,70,168,,06,30,307,*79
$GPGSV,2,2,06,09,37,210,,12,00,000,*72
$GLGSV,2,1,08,70,26,050,,86,56,188,,73,01,106,,79,10,008,*61
$GLGSV,2,2,08,88,04,331,,87,48,314,,71,75,004,,72,43,247,*6E
$GPGSA,A,1,,,,,,,,,,,,,,,*1E
$GPVTG,,T,,M,,N,,K,N*2C
$GPRMC,,V,,,,,,,,,,N*53
$GPGGA,,,,,,0,,,,,,,,*66
$GPGSV,2,1,06,01,30,142,,03,58,074,,04,70,168,,06,30,307,*79
$GPGSV,2,2,06,09,37,210,,12,00,000,*72
$GLGSV,2,1,08,70,26,050,,86,56,188,,73,01,106,,79,10,008,*61
$GLGSV,2,2,08,88,04,331,,87,48,314,,71,75,004,,72,43,247,*6E
$GPGSA,A,1,,,,,,,,,,,,,,,*1E
$GPVTG,,T,,M,,N,,K,N*2C
$GPRMC,,V,,,,,,,,,,N*53
$GPGGA,,,,,,0,,,,,,,,*66
$GPGSV,2,1,06,01,30,142,,03,58,074,,04,70,168,,06,30,307,*79
$GPGSV,2,2,06,09,37,210,,12,00,000,*72
$GLGSV,2,1,08,70,26,050,,86,56,188,,73,01,106,,79,10,008,*61
$GLGSV,2,2,08,88,04,331,,87,48,314,,71,75,004,,72,43,247,*6E
$GPGSA,A,1,,,,,,,,,,,,,,,*1E
$GPVTG,,T,,M,,N,,K,N*2C
$GPRMC,,V,,,,,,,,,,N*53
$GPGGA,,,,,,0,,,,,,,,*66
$GPGSV,2,1,06,01,30,142,,03,58,074,,04,70,168,,06,30,307,*79
$GPGSV,2,2,06,09,37,210,,12,00,000,*72
$GLGSV,2,1,08,70,26,050,,86,56,188,,73,01,106,,79,10,008,*61
$GLGSV,2,2,08,88,04,331,,87,48,314,,71,75,004,,72,43,247,*6E
$GPGSA,A,1,,,,,,,,,,,,,,,*1E
$GPVTG,,T,,M,,N,,K,N*2C
$GPRMC,,V,,,,,,,,,,N*53
$GPGGA,,,,,,0,,,,,,,,*66
$GPGSV,2,1,06,01,30,142,,03,58,074,,04,70,168,,06,30,307,*79
$GPGSV,2,2,06,09,37,210,,12,00,000,*72
$GLGSV,2,1,08,70,26,050,,86,56,188,,73,01,106,,79,10,008,*61
$GLGSV,2,2,08,88,04,331,,87,48,314,,71,75,004,,72,43,247,*6E
$GPGSA,A,1,,,,,,,,,,,,,,,*1E
$GPVTG,,T,,M,,N,,K,N*2C
$GPRMC,,V,,,,,,,,,,N*53
$GPGGA,,,,,,0,,,,,,,,*66
$GPGSV,4,1,13,01,30,142,,03,58,074,,04,70,168,,06,30,307,*7B
$GPGSV,4,2,13,09,37,210,,11,00,000,,12,00,000,,17,33,236,*71
$GPGSV,4,3,13,19,37,274,,21,10,143,,22,03,043,,25,00,000,*76
$GPGSV,4,4,13,31,19,046,*43
$GLGSV,2,1,08,70,26,050,,86,56,188,,73,02,106,,79,10,007,*6D
$GLGSV,2,2,08,88,04,331,,87,49,314,,71,75,007,,72,43,248,*63
$GPGSA,A,1,,,,,,,,,,,,,,,*1E
$GPVTG,,T,,M,,N,,K,N*2C
$GPRMC,,V,,,,,,,,,,N*53
$GPGGA,,,,,,0,,,,,,,,*66
$GPGSV,4,1,13,01,30,142,,03,58,074,,04,70,168,,06,30,307,*7B
$GPGSV,4,2,13,09,37,210,,11,00,000,,12,00,000,,17,33,236,*71
$GPGSV,4,3,13,19,37,274,,21,10,143,,22,03,043,,25,00,000,*76
$GPGSV,4,4,13,31,19,046,*43
$GLGSV,2,1,08,70,26,050,,86,56,188,,73,02,106,,79,10,007,*6D
$GLGSV,2,2,08,88,04,331,,87,49,314,,71,75,007,,72,43,248,*63
$GPGSA,A,1,,,,,,,,,,,,,,,*1E
$GPVTG,,T,,M,,N,,K,N*2C
$GPRMC,,V,,,,,,,,,,N*53
$GPGGA,,,,,,0,,,,,,,,*66
$GPGSV,4,1,13,01,30,142,,03,58,074,,04,70,168,,06,30,307,*7B
$GPGSV,4,2,13,09,37,210,,11,00,000,,12,00,000,,17,33,236,*71
$GPGSV,4,3,13,19,37,274,,21,10,143,,22,03,043,,25,00,000,*76
$GPGSV,4,4,13,31,19,046,*43
$GLGSV,2,1,08,70,26,050,,86,56,188,,73,02,106,,79,10,007,*6D
$GLGSV,2,2,08,88,04,331,,87,49,314,,71,75,007,,72,43,248,*63
$GPGSA,A,1,,,,,,,,,,,,,,,*1E
$GPVTG,,T,,M,,N,,K,N*2C
$GPRMC,,V,,,,,,,,,,N*53
$GPGGA,,,,,,0,,,,,,,,*66
$GPGSV,4,1,13,01,30,142,,03,58,074,,04,70,168,,06,30,307,*7B
$GPGSV,4,2,13,09,37,210,,11,00,000,,12,00,000,,17,33,236,*71
$GPGSV,4,3,13,19,37,274,,21,10,143,,22,03,043,,25,00,000,*76
$GPGSV,4,4,13,31,19,046,*43
$GLGSV,2,1,08,70,26,050,,86,56,188,,73,02,106,,79,10,007,*6D
$GLGSV,2,2,08,88,04,331,,87,49,314,,71,75,007,,72,43,248,*63
$GPGSA,A,1,,,,,,,,,,,,,,,*1E
$GPVTG,,T,,M,,N,,K,N*2C
$GPRMC,,V,,,,,,,,,,N*53
$GPGGA,,,,,,0,,,,,,,,*66
$GPGSV,4,1,13,01,30,142,,03,58,074,,04,70,168,,06,30,307,*7B
$GPGSV,4,2,13,09,37,210,,11,00,000,,12,00,000,,17,33,236,*71
$GPGSV,4,3,13,19,37,274,,21,10,143,,22,03,043,,25,00,000,*76
$GPGSV,4,4,13,31,19,046,*43
$GLGSV,2,1,08,70,26,050,,86,56,188,,73,02,106,,79,10,007,*6D
$GLGSV,2,2,08,88,04,331,,87,49,314,,71,75,007,,72,43,248,*63
$GPGSA,A,1,,,,,,,,,,,,,,,*1E
$GPVTG,,T,,M,,N,,K,N*2C
$GPRMC,,V,,,,,,,,,,N*53
$GPGGA,,,,,,0,,,,,,,,*66
$GPGSV,4,1,13,01,30,142,,03,58,074,,04,70,168,,06,30,307,*7B
$GPGSV,4,2,13,09,37,210,,11,00,000,,12,00,000,,17,33,236,*71
$GPGSV,4,3,13,19,37,274,,21,10,143,,22,03,043,,25,00,000,*76
$GPGSV,4,4,13,31,19,046,*43
$GLGSV,2,1,08,70,26,050,,86,56,188,,73,02,106,,79,10,007,*6D
$GLGSV,2,2,08,88,04,331,,87,49,314,,71,75,007,,72,43,248,*63
$GPGSA,A,1,,,,,,,,,,,,,,,*1E
$GPVTG,,T,,M,,N,,K,N*2C
$GPRMC,,V,,,,,,,,,,N*53
$GPGGA,,,,,,0,,,,,,,,*66
$GPGSV,4,1,13,01,30,142,,03,58,074,,04,70,168,,06,30,307,*7B
$GPGSV,4,2,13,09,37,210,,11,00,000,,12,00,000,,17,33,236,*71
$GPGSV,4,3,13,19,37,274,,21,10,143,,22,03,043,,25,00,000,*76
$GPGSV,4,4,13,31,19,046,*43
$GLGSV,2,1,08,70,26,050,,86,56,188,,73,02,106,,79,10,007,*6D
$GLGSV,2,2,08,88,04,331,,87,49,314,,71,75,007,,72,43,248,*63
$GPGSA,A,1,,,,,,,,,,,,,,,*1E
$GPVTG,,T,,M,,N,,K,N*2C
$GPRMC,,V,,,,,,,,,,N*53
$GPGGA,,,,,,0,,,,,,,,*66
$GPGSV,4,1,13,01,30,142,,03,58,074,,04,70,168,,06,30,307,*7B
$GPGSV,4,2,13,09,37,210,,11,00,000,,12,00,000,,17,33,236,*71
$GPGSV,4,3,13,19,37,274,,21,10,143,,22,03,043,,25,00,000,*76
$GPGSV,4,4,13,31,19,046,*43
$GLGSV,2,1,08,70,26,050,,86,56,188,,73,02,106,,79,10,007,*6D
$GLGSV,2,2,08,88,04,331,,87,49,314,,71,75,007,,72,43,248,*63
$GPGSA,A,1,,,,,,,,,,,,,,,*1E
$GPVTG,,T,,M,,N,,K,N*2C
$GPRMC,,V,,,,,,,,,,N*53
$GPGGA,,,,,,0,,,,,,,,*66
$GPGSV,4,1,13,01,30,142,,03,58,074,,04,70,168,,06,30,307,*7B
$GPGSV,4,2,13,09,37,210,,11,00,000,,12,00,000,,17,33,236,*71
$GPGSV,4,3,13,19,37,274,,21,10,143,,22,03,043,,25,00,000,*76
$GPGSV,4,4,13,31,19,046,*43
$GLGSV,2,1,08,70,26,050,,86,56,188,,73,02,106,,79,10,007,*6D
$GLGSV,2,2,08,88,04,331,,87,49,314,,71,75,007,,72,43,248,*63
$GPGSA,A,1,,,,,,,,,,,,,,,*1E
$GPVTG,,T,,M,,N,,K,N*2C
$GPRMC,,V,,,,,,,,,,N*53
$GPGGA,,,,,,0,,,,,,,,*66
$GPGSV,4,1,13,01,30,142,,03,58,074,,04,70,168,,06,30,307,*7B
$GPGSV,4,2,13,09,37,210,,11,00,000,,12,00,000,,17,33,236,*71
$GPGSV,4,3,13,19,37,274,,21,10,143,,22,03,043,,25,00,000,*76
$GPGSV,4,4,13,31,19,046,*43
$GLGSV,2,1,08,70,26,050,,86,56,188,,73,02,106,,79,10,007,*6D
$GLGSV,2,2,08,88,04,331,,87,49,314,,71,75,007,,72,43,248,*63
$GPGSA,A,1,,,,,,,,,,,,,,,*1E
$GPVTG,,T,,M,,N,,K,N*2C
$GPRMC,,V,,,,,,,,,,N*53
$GPGGA,,,,,,0,,,,,,,,*66
$GPGSV,4,1,13,01,30,142,,03,58,074,,04,70,168,,06,30,307,*7B
$GPGSV,4,2,13,09,37,210,,11,00,000,,12,00,000,,17,33,236,*71
$GPGSV,4,3,13,19,37,274,,21,10,143,,22,03,043,,25,00,000,*76
$GPGSV,4,4,13,31,19,046,*43
$GLGSV,2,1,08,70,26,050,,86,56,188,,73,02,106,,79,10,007,*6D
$GLGSV,2,2,08,88,04,331,,87,49,314,,71,75,007,,72,43,248,*63
$GPGSA,A,1,,,,,,,,,,,,,,,*1E
$GPVTG,,T,,M,,N,,K,N*2C
$GPRMC,,V,,,,,,,,,,N*53
$GPGGA,,,,,,0,,,,,,,,*66
$GPGSV,4,1,13,04,30,066,27,06,48,219,43,07,51,158,29,09,68,060,25*79
$GPGSV,4,2,13,11,48,278,38,16,12,056,28,20,35,299,19,26,06,029,19*75
$GPGSV,4,3,13,30,23,189,18,02,00,000,,03,00,000,,05,00,000,*73
$GPGSV,4,4,13,29,04,338,*4C
$GLGSV,3,1,10,74,42,090,24,66,04,275,19,73,25,035,26,75,17,149,26*6D
$GLGSV,3,2,10,88,40,264,34,87,18,213,20,81,24,327,29,65,54,303,*62
$GLGSV,3,3,10,71,11,082,,72,55,056,*6E
$GPGSA,A,3,04,06,07,09,11,16,20,26,30,,,,1.1,0.7,0.8*33
$GPVTG,,T,,M,0.0,N,0.0,K,D*26
$GPRMC,110951,A,4930.154390,N,00556.935613,E,0.0,,271022,1.1,W,D*22
$GPGGA,110951,4930.154390,N,00556.935613,E,2,09,0.7,299.0,M,48.0,M,,*45
$GPGSV,4,1,13,04,30,066,27,06,48,219,43,07,51,158,29,09,68,060,25*79
$GPGSV,4,2,13,11,48,278,38,16,12,056,28,20,35,299,19,26,06,029,19*75
$GPGSV,4,3,13,30,23,189,18,02,00,000,,03,00,000,,05,00,000,*73
$GPGSV,4,4,13,29,04,338,*4C
$GLGSV,3,1,10,74,42,090,24,66,04,275,19,73,25,035,26,75,17,149,26*6D
$GLGSV,3,2,10,88,40,264,34,87,18,213,20,81,24,327,29,65,54,303,*62
$GLGSV,3,3,10,71,11,082,,72,55,056,*6E
$GPGSA,A,1,,,,,,,,,,,,,,,*1E
$GPVTG,,T,,M,,N,,K,N*2C
$GPRMC,,V,,,,,,,,,,N*53
$GPGGA,,,,,,0,,,,,,,,*66
$GPGSV,4,1,13,04,30,066,30,06,48,219,43,07,51,158,32,09,68,060,24*74
$GPGSV,4,2,13,11,48,278,40,16,12,056,26,20,35,299,19,26,06,029,20*7E
$GPGSV,4,3,13,30,23,189,20,02,00,000,,03,00,000,,05,00,000,*78
$GPGSV,4,4,13,29,04,338,*4C
$GLGSV,3,1,10,74,42,090,21,66,04,275,19,73,25,035,19,75,17,149,21*63
$GLGSV,3,2,10,88,40,264,32,87,18,213,20,81,24,327,28,65,54,303,*65
$GLGSV,3,3,10,71,11,082,,72,55,056,*6E
$GPGSA,A,1,,,,,,,,,,,,,,,*1E
$GPVTG,,T,,M,,N,,K,N*2C
$GPRMC,,V,,,,,,,,,,N*53
$GPGGA,,,,,,0,,,,,,,,*66
$GPGSV,4,1,13,04,30,066,29,06,48,219,43,07,51,158,33,09,68,060,25*7C
$GPGSV,4,2,13,11,48,278,41,16,12,056,27,20,35,299,22,26,06,029,20*76
$GPGSV,4,3,13,30,23,189,19,02,00,000,,03,00,000,,05,00,000,*72
$GPGSV,4,4,13,29,04,338,*4C
$GLGSV,3,1,10,74,42,090,22,66,04,275,19,73,25,035,19,75,17,149,20*61
$GLGSV,3,2,10,65,54,303,30,88,40,264,34,87,18,213,20,81,24,327,29*61
$GLGSV,3,3,10,71,11,082,,72,55,056,*6E
$GPGSA,A,3,04,06,07,09,11,16,20,26,30,,,,1.0,0.7,0.8*32
$GPVTG,,T,,M,0.0,N,0.0,K,D*26
$GPRMC,110953,A,4930.159685,N,00556.933644,E,0.0,,271022,1.1,W,D*28
$GPGGA,110953,4930.159685,N,00556.933644,E,2,09,0.7,314.0,M,48.0,M,,*4B
$GPGSV,4,1,13,04,30,066,29,06,48,219,42,07,51,158,31,09,68,060,24*7E
$GPGSV,4,2,13,11,48,278,39,16,12,056,27,20,35,299,21,26,06,029,19*70
$GPGSV,4,3,13,30,23,189,19,02,00,000,,03,00,000,,05,00,000,*72
$GPGSV,4,4,13,29,04,338,*4C
$GLGSV,3,1,10,74,42,090,18,66,04,275,18,73,25,035,24,75,17,149,25*62
$GLGSV,3,2,10,65,54,303,29,88,40,264,32,87,18,213,20,81,24,327,27*61
$GLGSV,3,3,10,71,11,082,,72,55,056,*6E
$GPGSA,A,3,04,06,07,09,11,16,20,26,30,,,,1.0,0.7,0.8*32
$GPVTG,,T,,M,0.0,N,0.0,K,D*26
$GPRMC,110954,A,4930.159044,N,00556.933941,E,0.0,,271022,1.1,W,D*2E
$GPGGA,110954,4930.159044,N,00556.933941,E,2,09,0.7,314.0,M,48.0,M,,*4D
$GPGSV,4,1,13,04,30,066,28,06,48,219,43,07,51,158,31,09,68,060,24*7E
$GPGSV,4,2,13,11,48,278,39,16,12,056,28,20,35,299,21,26,06,029,20*75
$GPGSV,4,3,13,30,23,189,19,02,00,000,,03,00,000,,05,00,000,*72
$GPGSV,4,4,13,29,04,338,*4C
$GLGSV,3,1,10,74,42,090,21,66,04,275,18,73,25,035,25,75,17,149,24*68
$GLGSV,3,2,10,65,54,303,29,88,40,264,36,87,18,213,20,81,24,327,29*6B
$GLGSV,3,3,10,71,11,082,,72,55,056,*6E
$GPGSA,A,3,04,06,07,09,11,16,20,26,30,,,,1.0,0.7,0.8*32
$GPVTG,,T,,M,0.0,N,0.0,K,D*26
$GPRMC,110955,A,4930.158564,N,00556.934453,E,0.0,,271022,1.1,W,D*20
$GPGGA,110955,4930.158564,N,00556.934453,E,2,09,0.7,317.0,M,48.0,M,,*40
$GPGSV,4,1,13,04,30,066,28,06,48,219,44,07,51,158,32,09,68,060,23*7D
$GPGSV,4,2,13,11,48,278,40,16,12,056,26,20,35,299,23,26,06,029,20*77
$GPGSV,4,3,13,30,23,189,19,02,00,000,,03,00,000,,05,00,000,*72
$GPGSV,4,4,13,29,04,338,*4C
$GLGSV,3,1,10,74,42,090,23,66,04,275,18,73,25,035,21,75,17,149,19*60
$GLGSV,3,2,10,65,54,303,29,88,40,264,38,87,18,213,20,81,24,327,29*65
$GLGSV,3,3,10,71,11,082,,72,55,056,*6E
$GPGSA,A,3,04,06,07,09,11,16,20,26,30,,,,1.1,0.8,0.8*3C
$GPVTG,,T,,M,0.0,N,0.0,K,D*26
$GPRMC,110956,A,4930.157975,N,00556.934668,E,0.0,,271022,1.1,W,D*2A
$GPGGA,110956,4930.157975,N,00556.934668,E,2,09,0.8,319.0,M,48.0,M,,*4B
$GPGSV,4,1,13,04,30,066,27,06,48,219,42,07,51,158,31,09,68,060,25*71
$GPGSV,4,2,13,11,48,278,39,16,12,056,27,20,35,299,21,26,06,029,18*71
$GPGSV,4,3,13,30,23,189,19,02,00,000,,03,00,000,,05,00,000,*72
$GPGSV,4,4,13,29,04,338,*4C
$GLGSV,3,1,10,74,42,090,20,66,04,275,18,73,25,035,20,75,17,149,20*68
$GLGSV,3,2,10,65,54,303,27,88,40,264,34,87,18,213,20,81,24,327,27*69
$GLGSV,3,3,10,71,11,082,,72,55,056,*6E
$GPGSA,A,3,04,06,07,09,11,16,20,26,30,,,,1.1,0.8,0.8*3C
$GPVTG,,T,,M,0.0,N,0.0,K,D*26
$GPRMC,110957,A,4930.157110,N,00556.934578,E,0.0,,271022,1.1,W,D*22
$GPGGA,110957,4930.157110,N,00556.934578,E,2,09,0.8,317.0,M,48.0,M,,*4D
$GPGSV,4,1,13,04,30,066,27,06,48,219,42,07,51,158,31,09,68,060,25*71
$GPGSV,4,2,13,11,48,278,38,16,12,056,28,20,35,299,20,26,06,029,18*7E
$GPGSV,4,3,13,30,23,189,19,02,00,000,,03,00,000,,05,00,000,*72
$GPGSV,4,4,13,29,04,338,*4C
$GLGSV,3,1,10,74,42,090,20,66,04,275,18,73,25,035,26,75,17,149,23*6D
$GLGSV,3,2,10,65,54,303,29,88,40,264,35,87,18,213,20,81,24,327,26*67
$GLGSV,3,3,10,71,11,082,,72,55,056,*6E
$GPGSA,A,3,04,06,07,09,11,16,20,26,30,,,,1.1,0.8,0.8*3C
$GPVTG,,T,,M,0.0,N,0.0,K,D*26
$GPRMC,110958,A,4930.156616,N,00556.934086,E,0.0,,271022,1.1,W,D*29
$GPGGA,110958,4930.156616,N,00556.934086,E,2,09,0.8,315.0,M,48.0,M,,*44
$GPGSV,4,1,13,04,30,066,30,06,48,219,41,07,51,158,31,09,68,060,25*74
$GPGSV,4,2,13,11,48,278,37,16,12,056,28,20,35,299,22,26,06,029,18*73
$GPGSV,4,3,13,30,23,189,24,02,00,000,,03,00,000,,05,00,000,*7C
$GPGSV,4,4,13,29,04,338,*4C
$GLGSV,3,1,10,74,42,090,17,66,04,275,19,73,25,035,29,75,17,149,26*62
$GLGSV,3,2,10,65,54,303,29,88,40,264,35,87,18,213,20,81,24,327,25*64
$GLGSV,3,3,10,71,11,082,,72,55,056,*6E
$GPGSA,A,3,04,06,07,09,11,16,20,26,30,,,,1.1,0.7,0.8*33
$GPVTG,,T,,M,0.0,N,0.0,K,D*26
$GPRMC,110959,A,4930.156670,N,00556.933896,E,0.0,,271022,1.1,W,D*26
$GPGGA,110959,4930.156670,N,00556.933896,E,2,09,0.7,313.0,M,48.0,M,,*42
$GPGSV,4,1,13,04,30,066,28,06,48,219,40,07,51,158,32,09,68,060,23*79
$GPGSV,4,2,13,11,48,278,38,16,12,056,29,20,35,299,22,26,06,029,15*70
$GPGSV,4,3,13,30,23,189,18,02,00,000,,03,00,000,,05,00,000,*73
$GPGSV,4,4,13,29,04,338,*4C
$GLGSV,3,1,10,74,42,090,20,66,04,275,19,73,25,035,31,75,17,149,27*6E
$GLGSV,3,2,10,65,54,303,32,88,40,264,32,87,18,213,20,81,24,327,24*68
$GLGSV,3,3,10,71,11,082,,72,55,056,*6E
$GPGSA,A,3,04,06,07,09,11,16,20,26,30,,,,1.1,0.7,0.8*33
$GPVTG,,T,,M,0.0,N,0.0,K,D*26
$GPRMC,111000,A,4930.156377,N,00556.933643,E,0.0,,271022,1.1,W,D*26
$GPGGA,111000,4930.156377,N,00556.933643,E,2,09,0.7,312.0,M,48.0,M,,*43
$GPGSV,4,1,13,04,30,066,31,06,48,219,41,07,51,158,30,09,68,060,26*77
$GPGSV,4,2,13,11,48,278,37,16,12,056,26,20,35,299,24,26,06,029,19*7A
$GPGSV,4,3,13,30,23,189,26,02,00,000,,03,00,000,,05,00,000,*7E
$GPGSV,4,4,13,29,04,338,*4C
$GLGSV,3,1,10,74,42,090,27,66,04,275,19,73,25,035,31,75,17,149,27*69
$GLGSV,3,2,10,65,54,303,32,88,40,264,29,87,18,213,20,81,24,327,27*61
$GLGSV,3,3,10,71,11,082,,72,55,056,*6E
$GPGSA,A,3,04,06,07,09,11,16,20,26,30,,,,1.1,0.7,0.8*33
$GPVTG,230.9,T,230.9,M,1.2,N,2.3,K,D*24
$GPRMC,111001,A,4930.156769,N,00556.933602,E,1.2,230.9,271022,1.1,W,D*0C
$GPGGA,111001,4930.156769,N,00556.933602,E,2,09,0.7,314.0,M,48.0,M,,*4A
$GPGSV,4,1,13,04,30,066,37,06,48,219,34,07,51,158,27,09,68,060,26*75
$GPGSV,4,2,13,11,48,278,41,16,12,056,26,20,35,299,26,26,06,029,22*71
$GPGSV,4,3,13,30,23,189,20,02,00,000,,03,00,000,,05,00,000,*78
$GPGSV,4,4,13,29,04,338,*4C
$GLGSV,3,1,10,74,42,090,27,66,04,275,19,73,25,035,23,75,17,149,26*6B
$GLGSV,3,2,10,65,54,303,31,88,40,264,26,87,18,213,20,81,24,327,27*6D
$GLGSV,3,3,10,71,11,082,,72,55,056,*6E
$GPGSA,A,3,04,06,07,09,11,16,20,26,30,,,,1.1,0.7,0.8*33
$GPVTG,,T,,M,0.0,N,0.0,K,D*26
$GPRMC,111002,A,4930.156377,N,00556.933986,E,0.0,,271022,1.1,W,D*22
$GPGGA,111002,4930.156377,N,00556.933986,E,2,09,0.7,311.0,M,48.0,M,,*44
$GPGSV,4,1,13,04,30,066,38,06,48,219,35,07,51,158,28,09,68,060,30*73
$GPGSV,4,2,13,11,48,278,43,16,12,056,29,20,35,299,25,26,06,029,24*79
$GPGSV,4,3,13,30,23,189,23,02,00,000,,03,00,000,,05,00,000,*7B
$GPGSV,4,4,13,29,04,338,*4C
$GLGSV,3,1,10,74,42,090,25,66,04,275,19,73,25,035,26,75,17,149,23*69
$GLGSV,3,2,10,65,54,303,33,88,40,264,29,87,18,213,20,81,24,327,28*6F
$GLGSV,3,3,10,71,11,082,,72,55,056,*6E
$GPGSA,A,3,04,06,07,09,11,16,20,26,30,,,,1.1,0.7,0.8*33
$GPVTG,,T,,M,0.0,N,0.0,K,D*26
$GPRMC,111003,A,4930.157280,N,00556.935394,E,0.0,,271022,1.1,W,D*24
$GPGGA,111003,4930.157280,N,00556.935394,E,2,09,0.7,313.0,M,48.0,M,,*40
$GPGSV,4,1,13,04,30,066,37,06,48,219,35,07,51,158,27,09,68,060,31*72
$GPGSV,4,2,13,11,48,278,43,16,12,056,30,20,35,299,25,26,06,029,24*71
$GPGSV,4,3,13,30,23,189,24,02,00,000,,03,00,000,,05,00,000,*7C
$GPGSV,4,4,13,29,04,338,*4C
$GLGSV,3,1,10,74,42,090,25,66,04,275,19,73,25,035,21,75,17,149,23*6E
$GLGSV,3,2,10,65,54,303,32,88,40,264,29,87,18,213,20,81,24,327,29*6F
$GLGSV,3,3,10,71,11,082,,72,55,056,*6E
$GPGSA,A,3,04,06,07,09,11,16,20,26,30,,,,1.1,0.7,0.8*33
$GPVTG,,T,,M,0.0,N,0.0,K,D*26
$GPRMC,111004,A,4930.157520,N,00556.935452,E,0.0,,271022,1.1,W,D*23
$GPGGA,111004,4930.157520,N,00556.935452,E,2,09,0.7,311.0,M,48.0,M,,*45
$GPGSV,4,1,13,04,30,066,39,06,48,219,35,07,51,158,25,09,68,060,30*7F
$GPGSV,4,2,13,11,48,278,43,16,12,056,29,20,35,299,25,26,06,029,23*7E
$GPGSV,4,3,13,30,23,189,26,02,00,000,,03,00,000,,05,00,000,*7E
$GPGSV,4,4,13,29,04,338,*4C
$GLGSV,3,1,10,74,42,090,27,66,04,275,14,73,25,035,23,75,17,149,25*65
$GLGSV,3,2,10,65,54,303,32,88,40,264,31,87,18,213,20,81,24,327,28*67
$GLGSV,3,3,10,71,11,082,,72,55,056,*6E
$GPGSA,A,3,04,06,07,09,11,16,20,26,30,,,,1.1,0.7,0.8*33
$GPVTG,,T,,M,0.0,N,0.0,K,D*26
$GPRMC,111005,A,4930.157546,N,00556.935155,E,0.0,,271022,1.1,W,D*20
$GPGGA,111005,4930.157546,N,00556.935155,E,2,09,0.7,308.0,M,48.0,M,,*4E
$GPGSV,4,1,13,04,30,066,39,06,48,219,35,07,51,158,26,09,68,060,30*7C
$GPGSV,4,2,13,11,48,278,43,16,12,056,29,20,35,299,23,26,06,029,24*7F
$GPGSV,4,3,13,30,23,189,26,02,00,000,,03,00,000,,05,00,000,*7E
$GPGSV,4,4,13,29,04,338,*4C
$GLGSV,3,1,10,74,42,090,28,66,04,275,14,73,25,035,21,75,17,149,25*68
$GLGSV,3,2,10,65,54,303,32,88,40,264,31,87,18,213,20,81,24,327,29*66
$GLGSV,3,3,10,71,11,082,,72,55,056,*6E
$GPGSA,A,3,04,06,07,09,11,16,20,26,30,,,,1.1,0.7,0.8*33
$GPVTG,,T,,M,0.0,N,0.0,K,D*26
$GPRMC,111006,A,4930.157952,N,00556.934513,E,0.0,,271022,1.1,W,D*2D
$GPGGA,111006,4930.157952,N,00556.934513,E,2,09,0.7,306.0,M,48.0,M,,*4D
$GPGSV,4,1,13,04,30,066,38,06,48,219,34,07,51,158,32,09,68,060,30*79
$GPGSV,4,2,13,11,48,278,43,16,12,056,28,20,35,299,23,26,06,029,24*7E
$GPGSV,4,3,13,30,23,189,21,02,00,000,,03,00,000,,05,00,000,*79
$GPGSV,4,4,13,29,04,338,*4C
$GLGSV,3,1,10,74,42,090,25,66,04,275,14,73,25,035,25,75,17,149,21*65
$GLGSV,3,2,10,65,54,303,30,88,40,264,29,87,18,213,20,81,24,327,30*65
$GLGSV,3,3,10,71,11,082,,72,55,056,*6E
$GPGSA,A,3,04,06,07,09,11,16,20,26,30,,,,1.1,0.7,0.8*33
$GPVTG,,T,,M,0.0,N,0.0,K,D*26
$GPRMC,111007,A,4930.158672,N,00556.935119,E,0.0,,271022,1.1,W,D*21
$GPGGA,111007,4930.158672,N,00556.935119,E,2,09,0.7,308.0,M,48.0,M,,*4F
$GPGSV,4,1,13,04,30,066,35,06,48,219,36,07,51,158,31,09,68,060,24*70
$GPGSV,4,2,13,11,48,278,42,16,12,056,26,20,35,299,26,26,06,029,23*73
$GPGSV,4,3,13,30,23,189,25,02,00,000,,03,00,000,,05,00,000,*7D
$GPGSV,4,4,13,29,04,338,*4C
$GLGSV,3,1,10,74,42,090,23,66,04,275,14,73,25,035,29,75,17,149,26*68
$GLGSV,3,2,10,65,54,303,33,88,40,264,28,87,18,213,20,81,24,327,24*62
$GLGSV,3,3,10,71,11,082,,72,55,056,*6E
$GPGSA,A,3,04,06,07,09,11,16,20,26,30,,,,1.1,0.7,0.8*33
$GPVTG,,T,,M,0.0,N,0.0,K,D*26
$GPRMC,111008,A,4930.158909,N,00556.935253,E,0.0,,271022,1.1,W,D*20
$GPGGA,111008,4930.158909,N,00556.935253,E,2,09,0.7,308.0,M,48.0,M,,*4E
$GPGSV,4,1,13,04,30,066,27,06,48,219,38,07,51,158,27,09,68,060,25*7B
$GPGSV,4,2,13,11,48,278,39,16,12,056,27,20,35,299,26,26,06,029,24*79
$GPGSV,4,3,13,30,23,189,24,02,00,000,,03,00,000,,05,00,000,*7C
$GPGSV,4,4,13,29,04,338,*4C
$GLGSV,3,1,10,74,42,090,22,66,04,275,14,73,25,035,29,75,17,149,27*68
$GLGSV,3,2,10,65,54,303,34,88,40,264,31,87,18,213,20,81,24,327,25*6C
$GLGSV,3,3,10,71,11,082,,72,55,056,*6E
$GPGSA,A,3,04,06,07,09,11,16,20,26,30,,,,1.1,0.7,0.8*33
$GPVTG,185.0,T,185.0,M,1.0,N,1.9,K,D*2F
$GPRMC,111009,A,4930.158050,N,00556.935568,E,1.0,185.0,271022,1.1,W,D*08
$GPGGA,111009,4930.158050,N,00556.935568,E,2,09,0.7,308.0,M,48.0,M,,*45
$GPGSV,4,1,13,04,30,066,30,06,48,219,39,07,51,158,28,09,68,060,24*72
$GPGSV,4,2,13,11,48,278,38,16,12,056,28,20,35,299,23,26,06,029,24*72
$GPGSV,4,3,13,30,23,189,25,02,00,000,,03,00,000,,05,00,000,*7D
$GPGSV,4,4,13,29,04,338,*4C
$GLGSV,3,1,10,74,42,090,24,66,04,275,19,73,25,035,31,75,17,149,28*65
$GLGSV,3,2,10,65,54,303,32,88,40,264,33,87,18,213,20,81,24,327,24*69
$GLGSV,3,3,10,71,11,082,,72,55,056,*6E
$GPGSA,A,3,04,06,07,09,11,16,20,26,30,,,,1.1,0.7,0.8*33
$GPVTG,192.3,T,192.3,M,1.2,N,2.3,K,D*24
$GPRMC,111010,A,4930.157397,N,00556.935698,E,1.2,192.3,271022,1.1,W,D*0C
$GPGGA,111010,4930.157397,N,00556.935698,E,2,09,0.7,309.0,M,48.0,M,,*47
$GPGSV,4,1,13,04,30,066,28,06,48,219,35,07,51,158,25,09,68,060,22*7C
$GPGSV,4,2,13,11,48,278,34,16,12,056,24,20,35,299,20,26,06,029,19*7F
$GPGSV,4,3,13,30,23,189,19,02,00,000,,03,00,000,,05,00,000,*72
$GPGSV,4,4,13,29,04,338,*4C
$GLGSV,3,1,10,74,42,090,22,66,04,275,19,73,25,035,25,75,17,149,26*68
$GLGSV,3,2,10,65,54,303,25,88,40,264,29,87,18,213,20,81,24,327,28*68
$GLGSV,3,3,10,71,11,082,,72,55,056,*6E
$GPGSA,A,3,04,06,07,09,11,16,20,26,30,,,,1.1,0.7,0.8*33
$GPVTG,215.2,T,215.2,M,1.7,N,3.2,K,D*21
$GPRMC,111011,A,4930.156874,N,00556.935382,E,1.7,215.2,271022,1.1,W,D*0C
$GPGGA,111011,4930.156874,N,00556.935382,E,2,09,0.7,312.0,M,48.0,M,,*45
$GPGSV,4,1,13,04,30,066,32,06,48,219,38,07,51,158,27,09,68,060,26*7C
$GPGSV,4,2,13,11,48,278,41,16,12,056,26,20,35,299,25,26,06,029,33*72
$GPGSV,4,3,13,30,23,189,28,02,00,000,,03,00,000,,05,00,000,*70
$GPGSV,4,4,13,29,04,338,*4C
$GLGSV,3,1,10,74,42,090,24,66,04,275,19,73,25,035,29,75,17,149,29*6D
$GLGSV,3,2,10,65,54,303,34,88,40,264,36,87,18,213,20,81,24,327,26*68
$GLGSV,3,3,10,71,11,082,,72,55,056,*6E
$GPGSA,A,3,04,06,07,09,11,16,20,26,30,,,,1.1,0.7,0.8*33
$GPVTG,204.2,T,204.2,M,2.3,N,4.3,K,D*20
$GPRMC,111012,A,4930.156274,N,00556.935234,E,2.3,204.2,271022,1.1,W,D*0E
$GPGGA,111012,4930.156274,N,00556.935234,E,2,09,0.7,313.0,M,48.0,M,,*41
$GPGSV,4,1,13,04,30,066,29,06,48,219,34,07,51,158,26,09,68,060,26*7B
$GPGSV,4,2,13,11,48,278,38,16,12,056,25,20,35,299,24,26,06,029,31*7C
$GPGSV,4,3,13,30,23,189,23,02,00,000,,03,00,000,,05,00,000,*7B
$GPGSV,4,4,13,29,04,338,*4C
$GLGSV,3,1,10,74,42,090,24,66,04,275,15,73,25,035,28,75,17,149,24*6D
$GLGSV,3,2,10,65,54,303,34,88,40,264,32,87,18,213,20,81,24,327,24*6E
$GLGSV,3,3,10,71,11,082,,72,55,056,*6E
$GPGSA,A,3,04,06,07,09,11,16,20,26,30,,,,1.1,0.7,0.8*33
$GPVTG,204.4,T,204.4,M,2.1,N,4.0,K,D*21
$GPRMC,111013,A,4930.155750,N,00556.934783,E,2.1,204.4,271022,1.1,W,D*03
$GPGGA,111013,4930.155750,N,00556.934783,E,2,09,0.7,313.0,M,48.0,M,,*48
$GPGSV,4,1,13,04,30,066,28,06,48,219,34,07,51,158,24,09,68,060,28*76
$GPGSV,4,2,13,11,48,278,37,16,12,056,27,20,35,299,24,26,06,029,31*71
$GPGSV,4,3,13,29,04,338,19,30,23,189,26,02,00,000,,03,00,000,*74
$GPGSV,4,4,13,05,00,000,*4E
$GLGSV,3,1,10,74,42,090,22,66,04,275,17,73,25,035,29,75,17,149,22*6E
$GLGSV,3,2,10,65,54,303,33,88,40,264,31,87,18,213,20,81,24,327,24*6A
$GLGSV,3,3,10,71,11,082,,72,55,056,*6E
$GPGSA,A,3,04,06,07,09,11,16,20,26,29,30,,,1.1,0.7,0.8*38
$GPVTG,173.6,T,173.6,M,2.1,N,3.9,K,D*2F
$GPRMC,111014,A,4930.154724,N,00556.935455,E,2.1,173.6,271022,1.1,W,D*0E
$GPGGA,111014,4930.154724,N,00556.935455,E,2,10,0.7,314.0,M,48.0,M,,*4B
$GPGSV,4,1,13,04,30,066,32,06,48,219,39,07,51,158,30,09,68,060,31*7D
$GPGSV,4,2,13,11,48,278,46,16,12,056,32,20,35,299,30,26,06,029,32*75
$GPGSV,4,3,13,29,04,338,19,30,23,189,31,02,00,000,,03,00,000,*72
$GPGSV,4,4,13,05,00,000,*4E
$GLGSV,3,1,10,74,42,090,29,66,04,275,22,73,25,035,36,75,17,149,31*6F
$GLGSV,3,2,10,65,54,303,40,88,40,264,40,87,18,213,22,81,24,327,33*6C
$GLGSV,3,3,10,71,11,082,,72,55,056,*6E
$GPGSA,A,3,04,06,07,09,11,16,20,26,29,30,,,1.0,0.6,0.7*37
$GPVTG,157.1,T,157.1,M,2.2,N,4.0,K,D*22
$GPRMC,111015,A,4930.153814,N,00556.934653,E,2.2,157.1,271022,1.1,W,D*03
$GPGGA,111015,4930.153814,N,00556.934653,E,2,10,0.6,315.0,M,48.0,M,,*44
$GPGSV,4,1,13,04,30,066,32,06,48,219,33,07,51,158,29,09,68,060,30*7E
$GPGSV,4,2,13,11,48,278,47,16,12,056,27,20,35,299,28,26,06,029,30*7B
$GPGSV,4,3,13,29,04,338,21,30,23,189,30,02,00,000,,03,00,000,*78
$GPGSV,4,4,13,05,00,000,*4E
$GLGSV,3,1,10,74,42,090,30,66,04,275,24,73,25,035,35,75,17,149,27*65
$GLGSV,3,2,10,65,54,303,39,88,40,264,43,81,24,327,31,87,18,213,*63
$GLGSV,3,3,10,71,11,082,,72,55,056,*6E
$GPGSA,A,3,04,06,07,09,11,16,20,26,29,30,,,0.9,0.6,0.7*3F
$GPVTG,147.7,T,147.7,M,1.4,N,2.6,K,D*27
$GPRMC,111016,A,4930.153551,N,00556.934695,E,1.4,147.7,271022,1.1,W,D*04
$GPGGA,111016,4930.153551,N,00556.934695,E,2,10,0.6,317.0,M,48.0,M,,*43
$GPGSV,4,1,13,04,30,066,34,06,48,219,34,07,51,158,29,09,68,060,31*7E
$GPGSV,4,2,13,11,48,278,44,16,12,056,34,20,35,299,30,26,06,029,27*75
$GPGSV,4,3,13,29,04,338,22,30,23,189,32,02,00,000,,03,00,000,*79
$GPGSV,4,4,13,05,00,000,*4E
$GLGSV,3,1,10,74,42,090,27,66,04,275,24,73,25,035,31,75,17,149,30*61
$GLGSV,3,2,10,65,54,303,40,88,40,264,49,87,18,213,22,81,24,327,34*62
$GLGSV,3,3,10,71,11,082,,72,55,056,*6E
$GPGSA,A,3,04,06,07,09,11,16,20,26,29,30,,,0.9,0.6,0.7*3F
$GPVTG,154.3,T,154.3,M,1.4,N,2.5,K,D*24
$GPRMC,111017,A,4930.153554,N,00556.934006,E,1.4,154.3,271022,1.1,W,D*0A
$GPGGA,111017,4930.153554,N,00556.934006,E,2,10,0.6,318.0,M,48.0,M,,*44
$GPGSV,4,1,13,04,30,066,34,06,48,219,34,07,51,158,29,09,68,060,32*7D
$GPGSV,4,2,13,11,48,278,44,16,12,056,31,20,35,299,29,26,06,029,29*76
$GPGSV,4,3,13,29,04,338,21,30,23,189,33,02,00,000,,03,00,000,*7B
$GPGSV,4,4,13,05,00,000,*4E
$GLGSV,3,1,10,74,42,090,29,66,04,275,25,73,25,035,31,75,17,149,30*6E
$GLGSV,3,2,10,65,54,303,39,88,40,264,49,81,24,327,35,87,18,213,*6D
$GLGSV,3,3,10,71,11,082,,72,55,056,*6E
$GPGSA,A,3,04,06,07,09,11,16,20,26,29,30,,,0.9,0.6,0.7*3F
$GPVTG,187.0,T,187.0,M,1.7,N,3.1,K,D*22
$GPRMC,111018,A,4930.152972,N,00556.933624,E,1.7,187.0,271022,1.1,W,D*03
$GPGGA,111018,4930.152972,N,00556.933624,E,2,10,0.6,319.0,M,48.0,M,,*42
$GPGSV,4,1,13,04,30,066,33,06,48,219,35,07,51,158,27,09,68,060,30*77
$GPGSV,4,2,13,11,48,278,45,16,12,056,30,20,35,299,30,26,06,029,29*7E
$GPGSV,4,3,13,29,04,338,21,30,23,189,38,02,00,000,,03,00,000,*70
$GPGSV,4,4,13,05,00,000,*4E
$GLGSV,3,1,10,74,42,090,29,66,04,275,22,73,25,035,32,75,17,149,32*68
$GLGSV,3,2,10,65,54,303,39,88,40,264,49,87,18,213,21,81,24,327,28*62
$GLGSV,3,3,10,71,11,082,,72,55,056,*6E
$GPGSA,A,3,04,06,07,09,11,16,20,26,29,30,,,0.9,0.6,0.7*3F
$GPVTG,180.5,T,180.5,M,0.6,N,1.2,K,D*23
$GPRMC,111019,A,4930.152679,N,00556.933235,E,0.6,180.5,271022,1.1,W,D*00
$GPGGA,111019,4930.152679,N,00556.933235,E,2,10,0.6,321.0,M,48.0,M,,*48
$GPGSV,4,1,13,02,00,000,19,04,30,066,34,06,48,219,32,07,51,158,33*7A
$GPGSV,4,2,13,09,68,060,30,11,48,278,46,16,12,056,29,20,35,299,27*73
$GPGSV,4,3,13,26,06,029,29,29,04,338,22,30,23,189,38,03,00,000,*73
$GPGSV,4,4,13,05,00,000,*4E
$GLGSV,3,1,09,74,42,090,30,66,04,275,25,73,25,035,33,75,17,149,32*6E
$GLGSV,3,2,09,65,54,303,39,88,40,264,49,81,24,327,32,71,11,082,*68
$GLGSV,3,3,09,72,55,056,*5A
$GPGSA,A,3,02,04,06,07,09,11,16,20,26,29,30,,0.9,0.6,0.7*3D
$GPVTG,190.9,T,190.9,M,1.3,N,2.4,K,D*22
$GPRMC,111020,A,4930.152282,N,00556.932799,E,1.3,190.9,271022,1.1,W,D*01
$GPGGA,111020,4930.152282,N,00556.932799,E,2,11,0.6,318.0,M,48.0,M,,*4B
$GPGSV,4,1,13,02,00,000,17,04,30,066,35,06,48,219,35,07,51,158,37*76
$GPGSV,4,2,13,09,68,060,31,11,48,278,45,16,12,056,29,20,35,299,29*7F
$GPGSV,4,3,13,26,06,029,31,29,04,338,22,30,23,189,40,03,00,000,*75
$GPGSV,4,4,13,05,00,000,*4E
$GLGSV,3,1,10,74,42,090,29,66,04,275,23,73,25,035,36,75,17,149,33*6C
$GLGSV,3,2,10,65,54,303,40,88,40,264,47,81,24,327,32,87,18,213,*6A
$GLGSV,3,3,10,71,11,082,,72,55,056,*6E
$GPGSA,A,3,02,04,06,07,09,11,16,20,26,29,30,,0.9,0.6,0.7*3D
$GPVTG,198.4,T,198.4,M,1.8,N,3.3,K,D*2F
$GPRMC,111021,A,4930.151721,N,00556.932153,E,1.8,198.4,271022,1.1,W,D*01
$GPGGA,111021,4930.151721,N,00556.932153,E,2,11,0.6,318.0,M,48.0,M,,*45
$GPGSV,4,1,13,02,00,000,17,04,30,066,37,06,48,219,34,07,51,158,35*77
$GPGSV,4,2,13,09,68,060,32,11,48,278,46,16,12,056,31,20,35,299,31*7F
$GPGSV,4,3,13,26,06,029,30,29,04,338,22,30,23,189,40,03,00,000,*74
$GPGSV,4,4,13,05,00,000,*4E
$GLGSV,3,1,10,74,42,090,24,66,04,275,24,73,25,035,35,75,17,149,32*64
$GLGSV,3,2,10,65,54,303,38,88,40,264,46,87,18,213,20,81,24,327,33*67
$GLGSV,3,3,10,71,11,082,,72,55,056,*6E
$GPGSA,A,3,02,04,06,07,09,11,16,20,26,29,30,,0.9,0.6,0.7*3D
$GPVTG,182.0,T,182.0,M,2.0,N,3.8,K,D*2F
$GPRMC,111022,A,4930.151015,N,00556.931521,E,2.0,182.0,271022,1.1,W,D*04
$GPGGA,111022,4930.151015,N,00556.931521,E,2,11,0.6,321.0,M,48.0,M,,*4E
$GPGSV,4,1,13,02,00,000,17,04,30,066,36,06,48,219,33,07,51,158,39*7D
$GPGSV,4,2,13,09,68,060,31,11,48,278,46,16,12,056,31,20,35,299,29*75
$GPGSV,4,3,13,26,06,029,28,30,23,189,43,03,00,000,,05,00,000,*7C
$GPGSV,4,4,13,29,04,338,*4C
$GLGSV,3,1,10,74,42,090,26,66,04,275,23,73,25,035,32,75,17,149,29*6C
$GLGSV,3,2,10,65,54,303,39,88,40,264,40,81,24,327,30,87,18,213,*61
$GLGSV,3,3,10,71,11,082,,72,55,056,*6E
$GPGSA,A,3,02,04,06,07,09,11,16,20,26,30,,,0.9,0.6,0.7*36
$GPVTG,181.9,T,181.9,M,1.5,N,2.8,K,D*28
$GPRMC,111023,A,4930.150325,N,00556.931198,E,1.5,181.9,271022,1.1,W,D*0E
$GPGGA,111023,4930.150325,N,00556.931198,E,2,10,0.6,322.0,M,48.0,M,,*4A
$GPGSV,4,1,13,02,00,000,17,04,30,066,34,06,48,219,31,07,51,158,37*73
$GPGSV,4,2,13,09,68,060,32,11,48,278,43,16,12,056,32,20,35,299,30*78
$GPGSV,4,3,13,26,06,029,28,30,23,189,42,03,00,000,,05,00,000,*7D
$GPGSV,4,4,13,29,04,338,*4C
$GLGSV,3,1,10,74,42,090,27,66,04,275,20,73,25,035,34,75,17,149,28*69
$GLGSV,3,2,10,65,54,303,40,88,40,264,34,87,18,213,21,81,24,327,33*6C
$GLGSV,3,3,10,71,11,082,,72,55,056,*6E
$GPGSA,A,3,02,04,06,07,09,11,16,20,26,30,,,0.9,0.6,0.7*36
$GPVTG,181.9,T,181.9,M,0.7,N,1.3,K,D*23
$GPRMC,111024,A,4930.149831,N,00556.931107,E,0.7,181.9,271022,1.1,W,D*0A
$GPGGA,111024,4930.149831,N,00556.931107,E,2,10,0.6,322.0,M,48.0,M,,*4D
$GPGSV,4,1,13,02,00,000,17,04,30,066,34,06,48,219,30,07,51,158,37*72
$GPGSV,4,2,13,09,68,060,31,11,48,278,41,16,12,056,30,20,35,299,34*7F
$GPGSV,4,3,13,26,06,029,27,29,04,338,21,30,23,189,44,03,00,000,*75
$GPGSV,4,4,13,05,00,000,*4E
$GLGSV,3,1,10,74,42,090,23,66,04,275,24,73,25,035,35,75,17,149,29*69
$GLGSV,3,2,10,65,54,303,40,88,40,264,36,87,18,213,21,81,24,327,32*6F
$GLGSV,3,3,10,71,11,082,,72,55,056,*6E
$GPGSA,A,3,02,04,06,07,09,11,16,20,26,29,30,,0.9,0.6,0.7*3D
$GPVTG,182.0,T,182.0,M,0.8,N,1.4,K,D*2B
$GPRMC,111025,A,4930.149394,N,00556.931036,E,0.8,182.0,271022,1.1,W,D*09
$GPGGA,111025,4930.149394,N,00556.931036,E,2,11,0.6,320.0,M,48.0,M,,*48
$GPGSV,4,1,13,02,00,000,21,04,30,066,35,06,48,219,32,07,51,158,41*75
$GPGSV,4,2,13,09,68,060,33,11,48,277,47,16,12,056,31,20,35,299,40*76
$GPGSV,4,3,13,26,06,029,28,30,23,189,43,03,00,000,,05,00,000,*7C
$GPGSV,4,4,13,29,04,338,*4C
$GLGSV,3,1,10,74,42,090,26,66,04,275,24,73,25,035,36,75,17,149,32*65
$GLGSV,3,2,10,65,54,303,40,88,40,264,34,87,18,213,23,81,24,327,35*68
$GLGSV,3,3,10,71,11,082,,72,55,056,*6E
$GPGSA,A,3,02,04,06,07,09,11,16,20,26,30,,,0.9,0.6,0.7*36
$GPVTG,182.0,T,182.0,M,2.1,N,3.9,K,D*2F
$GPRMC,111026,A,4930.148787,N,00556.930852,E,2.1,182.0,271022,1.1,W,D*0D
$GPGGA,111026,4930.148787,N,00556.930852,E,2,10,0.6,320.0,M,48.0,M,,*46
$GPGSV,4,1,13,02,00,000,20,04,30,066,35,06,48,219,29,07,51,158,36*7E
$GPGSV,4,2,13,09,68,060,31,11,48,277,41,16,12,056,30,20,35,299,43*70
$GPGSV,4,3,13,26,06,029,23,30,23,189,41,03,00,000,,05,00,000,*75
$GPGSV,4,4,13,29,04,338,*4C
$GLGSV,3,1,10,74,42,090,25,66,04,275,29,73,25,035,37,75,17,149,35*6D
$GLGSV,3,2,10,65,54,303,40,88,40,264,33,87,18,213,22,81,24,327,31*6A
$GLGSV,3,3,10,71,11,082,,72,55,056,*6E
$GPGSA,A,3,02,04,06,07,09,11,16,20,26,30,,,0.9,0.6,0.7*36
$GPVTG,182.2,T,182.2,M,2.4,N,4.4,K,D*20
$GPRMC,111027,A,4930.148001,N,00556.930387,E,2.4,182.2,271022,1.1,W,D*01
$GPGGA,111027,4930.148001,N,00556.930387,E,2,10,0.6,319.0,M,48.0,M,,*47
$GPGSV,4,1,13,04,30,066,37,06,48,219,29,07,51,158,37,09,68,060,29*77
$GPGSV,4,2,13,11,48,277,32,16,12,056,28,20,35,299,48,26,06,029,27*79
$GPGSV,4,3,13,30,23,189,43,02,00,000,,03,00,000,,05,00,000,*7D
$GPGSV,4,4,13,29,04,338,*4C
$GLGSV,3,1,10,74,42,090,34,66,04,275,33,73,25,035,34,75,17,149,29*68
$GLGSV,3,2,10,65,54,303,40,88,40,264,33,87,18,213,22,81,24,327,30*6B
$GLGSV,3,3,10,71,11,082,,72,55,056,*6E
$GPGSA,A,3,04,06,07,09,11,16,20,26,30,,,,0.9,0.6,0.7*34
$GPVTG,178.0,T,178.0,M,2.0,N,3.7,K,D*20
$GPRMC,111028,A,4930.147276,N,00556.929914,E,2.0,178.0,271022,1.1,W,D*08
$GPGGA,111028,4930.147276,N,00556.929914,E,2,09,0.6,319.0,M,48.0,M,,*45
$GPGSV,4,1,13,04,30,066,34,06,48,219,29,07,51,158,41,09,68,060,29*75
$GPGSV,4,2,13,11,48,277,29,16,12,056,31,20,35,299,47,26,06,029,26*75
$GPGSV,4,3,13,30,23,189,43,02,00,000,,03,00,000,,05,00,000,*7D
$GPGSV,4,4,13,29,04,338,*4C
$GLGSV,3,1,10,74,42,090,31,66,04,275,23,73,25,035,36,75,17,149,31*67
$GLGSV,3,2,10,65,54,303,39,88,40,264,32,87,18,213,22,81,24,327,33*67
$GLGSV,3,3,10,71,11,082,,72,55,056,*6E
$GPGSA,A,3,04,06,07,09,11,16,20,26,30,,,,0.9,0.6,0.7*34
$GPVTG,178.1,T,178.1,M,2.9,N,5.4,K,D*2C
$GPRMC,111029,A,4930.146458,N,00556.929331,E,2.9,178.1,271022,1.1,W,D*07
$GPGGA,111029,4930.146458,N,00556.929331,E,2,09,0.6,319.0,M,48.0,M,,*42
$GPGSV,4,1,13,04,30,066,33,06,48,219,29,07,51,158,41,09,68,060,31*7B
$GPGSV,4,2,13,11,48,277,26,16,12,056,29,20,35,299,46,26,06,029,27*73
$GPGSV,4,3,13,30,23,189,39,02,00,000,,03,00,000,,05,00,000,*70
$GPGSV,4,4,13,29,04,338,*4C
$GLGSV,3,1,10,74,42,090,25,66,04,275,21,73,25,035,37,75,17,149,27*66
$GLGSV,3,2,10,65,54,303,39,88,40,264,28,87,18,213,25,81,24,327,32*6A
$GLGSV,3,3,10,71,11,082,,72,55,056,*6E
$GPGSA,A,3,04,06,07,09,11,16,20,26,30,,,,0.9,0.6,0.7*34
$GPVTG,178.1,T,178.1,M,1.7,N,3.1,K,D*22
$GPRMC,111030,A,4930.145773,N,00556.928913,E,1.7,178.1,271022,1.1,W,D*00
$GPGGA,111030,4930.145773,N,00556.928913,E,2,09,0.6,318.0,M,48.0,M,,*49
$GPGSV,4,1,13,04,30,066,34,06,48,219,31,07,51,158,41,09,68,060,30*74
$GPGSV,4,2,13,11,48,277,24,16,12,056,29,20,35,299,34,26,06,029,29*7A
$GPGSV,4,3,13,30,23,189,34,02,00,000,,03,00,000,,05,00,000,*7D
$GPGSV,4,4,13,29,04,338,*4C
$GLGSV,3,1,10,74,42,090,23,66,04,275,21,73,25,035,33,75,17,149,33*61
$GLGSV,3,2,10,65,54,303,30,88,40,264,30,81,24,327,32,87,18,213,*6D
$GLGSV,3,3,10,71,11,082,,72,55,056,*6E
$GPGSA,A,3,04,06,07,09,11,16,20,26,30,,,,1.0,0.6,0.7*3C
$GPVTG,178.1,T,178.1,M,2.7,N,4.9,K,D*2E
$GPRMC,111031,A,4930.145048,N,00556.928440,E,2.7,178.1,271022,1.1,W,D*06
$GPGGA,111031,4930.145048,N,00556.928440,E,2,09,0.6,317.0,M,48.0,M,,*43
$GPGSV,4,1,13,04,30,066,35,06,48,219,32,07,51,158,41,09,68,060,32*74
$GPGSV,4,2,13,11,48,277,24,16,12,056,31,20,35,299,30,26,06,029,29*77
$GPGSV,4,3,13,30,23,189,30,02,00,000,,03,00,000,,05,00,000,*79
$GPGSV,4,4,13,29,04,338,*4C
$GLGSV,3,1,09,74,42,090,26,73,25,035,35,75,17,149,32,65,54,303,27*6B
$GLGSV,3,2,09,88,40,264,24,87,18,213,24,81,24,327,33,71,11,082,*6A
$GLGSV,3,3,09,72,55,056,*5A
$GPGSA,A,3,04,06,07,09,11,16,20,26,30,,,,1.0,0.6,0.7*3C
$GPVTG,178.1,T,178.1,M,1.7,N,3.1,K,D*22
$GPRMC,111032,A,4930.144392,N,00556.927763,E,1.7,178.1,271022,1.1,W,D*0E
$GPGGA,111032,4930.144392,N,00556.927763,E,2,09,0.6,316.0,M,48.0,M,,*49
$GPGSV,4,1,13,04,30,066,35,06,48,219,30,07,51,158,33,09,68,060,37*76
$GPGSV,4,2,13,11,48,277,25,16,12,056,33,20,35,299,28,26,06,029,24*70
$GPGSV,4,3,13,30,23,189,34,02,00,000,,03,00,000,,05,00,000,*7D
$GPGSV,4,4,13,29,04,338,*4C
$GLGSV,3,1,09,74,42,090,25,73,25,035,36,75,17,149,30,65,54,303,21*6F
$GLGSV,3,2,09,88,40,264,23,87,18,213,21,81,24,327,32,71,11,082,*69
$GLGSV,3,3,09,72,55,056,*5A
$GPGSA,A,3,04,06,07,09,11,16,20,26,30,,,,1.0,0.6,0.7*3C
$GPVTG,178.1,T,178.1,M,0.7,N,1.3,K,D*23
$GPRMC,111033,A,4930.144106,N,00556.927130,E,0.7,178.1,271022,1.1,W,D*01
$GPGGA,111033,4930.144106,N,00556.927130,E,2,09,0.6,316.0,M,48.0,M,,*47
$GPGSV,4,1,13,04,30,066,32,06,48,219,29,07,51,158,33,09,68,060,37*79
$GPGSV,4,2,13,11,48,277,25,16,12,056,31,20,35,299,30,26,06,029,27*78
$GPGSV,4,3,13,30,23,189,24,02,00,000,,03,00,000,,05,00,000,*7C
$GPGSV,4,4,13,29,04,338,*4C
$GLGSV,3,1,10,74,42,090,29,66,04,275,17,73,25,035,40,75,17,149,29*61
$GLGSV,3,2,10,65,54,303,24,88,40,264,24,87,18,213,25,81,24,327,28*61
$GLGSV,3,3,10,71,11,082,,72,55,056,*6E
$GPGSA,A,3,04,06,07,09,11,16,20,26,30,,,,1.0,0.6,0.7*3C
$GPVTG,178.1,T,178.1,M,0.3,N,0.6,K,D*23
$GPRMC,111034,A,4930.144001,N,00556.926822,E,0.3,178.1,271022,1.1,W,D*0F
$GPGGA,111034,4930.144001,N,00556.926822,E,2,09,0.6,317.0,M,48.0,M,,*4C
$GPGSV,4,1,13,04,30,066,37,06,48,219,29,07,51,158,38,09,68,060,37*77
$GPGSV,4,2,13,11,48,277,27,16,12,056,28,20,35,299,29,26,06,029,27*7A
$GPGSV,4,3,13,29,04,338,19,30,23,189,30,02,00,000,,03,00,000,*73
$GPGSV,4,4,13,05,00,000,*4E
$GLGSV,3,1,10,74,42,090,26,66,04,275,16,73,25,035,35,75,17,149,31*64
$GLGSV,3,2,10,65,54,303,21,88,40,264,25,87,18,213,21,81,24,327,30*68
$GLGSV,3,3,10,71,11,082,,72,55,056,*6E
$GPGSA,A,3,04,06,07,09,11,16,20,26,29,30,,,1.0,0.6,0.7*37
$GPVTG,178.0,T,178.0,M,1.0,N,1.9,K,D*2F
$GPRMC,111035,A,4930.144166,N,00556.926798,E,1.0,178.0,271022,1.1,W,D*03
$GPGGA,111035,4930.144166,N,00556.926798,E,2,10,0.6,318.0,M,48.0,M,,*44
$GPGSV,4,1,13,04,30,066,34,06,48,219,28,07,51,158,40,09,68,060,39*74
$GPGSV,4,2,13,11,48,277,25,16,12,056,27,20,35,299,26,26,06,029,26*79
$GPGSV,4,3,13,30,23,189,25,02,00,000,,03,00,000,,05,00,000,*7D
$GPGSV,4,4,13,29,04,338,*4C
$GLGSV,3,1,10,74,42,090,31,66,04,275,16,73,25,035,31,75,17,149,29*6F
$GLGSV,3,2,10,65,54,303,19,88,40,264,23,87,18,213,23,81,24,327,31*66
$GLGSV,3,3,10,71,11,082,,72,55,056,*6E
$GPGSA,A,3,04,06,07,09,11,16,20,26,30,,,,1.0,0.7,0.8*32
$GPVTG,178.0,T,178.0,M,1.0,N,1.8,K,D*2E
$GPRMC,111036,A,4930.144386,N,00556.927055,E,1.0,178.0,271022,1.1,W,D*0B
$GPGGA,111036,4930.144386,N,00556.927055,E,2,09,0.7,319.0,M,48.0,M,,*44
$GPGSV,4,1,13,04,30,066,33,06,48,219,27,07,51,158,39,09,68,060,39*72
$GPGSV,4,2,13,11,48,277,22,16,12,056,30,20,35,299,31,26,06,029,26*7E
$GPGSV,4,3,13,30,23,189,29,02,00,000,,03,00,000,,05,00,000,*71
$GPGSV,4,4,13,29,04,338,*4C
$GLGSV,3,1,10,74,42,090,32,66,04,275,16,73,25,035,34,75,17,149,34*65
$GLGSV,3,2,10,65,54,303,28,88,40,264,27,87,18,213,25,81,24,327,28*6E
$GLGSV,3,3,10,71,11,082,,72,55,056,*6E
$GPGSA,A,3,04,06,07,09,11,16,20,26,30,,,,1.0,0.7,0.8*32
$GPVTG,178.0,T,178.0,M,0.8,N,1.4,K,D*2B
$GPRMC,111037,A,4930.144511,N,00556.927338,E,0.8,178.0,271022,1.1,W,D*03
$GPGGA,111037,4930.144511,N,00556.927338,E,2,09,0.7,320.0,M,48.0,M,,*4F
$GPGSV,4,1,13,04,30,066,34,06,48,219,30,07,51,158,37,09,68,060,42*71
$GPGSV,4,2,13,11,48,277,25,16,12,056,35,20,35,299,28,26,06,029,28*7A
$GPGSV,4,3,13,30,23,189,30,02,00,000,,03,00,000,,05,00,000,*79
$GPGSV,4,4,13,29,04,338,*4C
$GLGSV,3,1,10,74,42,090,31,66,04,275,16,73,25,035,39,75,17,149,36*69
$GLGSV,3,2,10,65,54,303,25,88,40,264,21,87,18,213,23,81,24,327,30*6A
$GLGSV,3,3,10,71,11,082,,72,55,056,*6E
$GPGSA,A,3,04,06,07,09,11,16,20,26,30,,,,1.0,0.7,0.8*32
$GPVTG,178.0,T,178.0,M,2.4,N,4.5,K,D*21
$GPRMC,111038,A,4930.144549,N,00556.928185,E,2.4,178.0,271022,1.1,W,D*04
$GPGGA,111038,4930.144549,N,00556.928185,E,2,09,0.7,320.0,M,48.0,M,,*46
$GPGSV,4,1,13,04,30,066,33,06,48,219,30,07,51,158,37,09,68,060,40*74
$GPGSV,4,2,13,11,48,277,23,16,12,056,29,20,35,299,28,26,06,029,25*7C
$GPGSV,4,3,13,29,04,338,23,30,23,189,28,02,00,000,,03,00,000,*73
$GPGSV,4,4,13,05,00,000,*4E
$GLGSV,3,1,10,74,42,090,27,66,04,275,16,73,25,035,36,75,17,149,34*63
$GLGSV,3,2,10,65,54,303,27,88,40,264,26,87,18,213,25,81,24,327,31*68
$GLGSV,3,3,10,71,11,082,,72,55,056,*6E
$GPGSA,A,3,04,06,07,09,11,16,20,26,29,30,,,1.0,0.6,0.7*37
$GPVTG,178.0,T,178.0,M,1.9,N,3.6,K,D*2B
$GPRMC,111039,A,4930.144462,N,00556.929214,E,1.9,178.0,271022,1.1,W,D*09
$GPGGA,111039,4930.144462,N,00556.929214,E,2,10,0.6,321.0,M,48.0,M,,*4D
$GPGSV,4,1,13,04,30,066,34,06,48,219,32,07,51,158,37,09,68,060,39*7F
$GPGSV,4,2,13,11,48,277,24,16,12,056,30,20,35,299,30,26,06,029,27*78
$GPGSV,4,3,13,29,04,338,23,30,23,189,28,02,00,000,,03,00,000,*73
$GPGSV,4,4,13,05,00,000,*4E
$GLGSV,3,1,10,74,42,090,30,66,04,275,17,73,25,035,35,75,17,149,30*63
$GLGSV,3,2,10,65,54,303,26,88,40,264,25,87,18,213,22,81,24,327,31*6D
$GLGSV,3,3,10,71,11,082,,72,55,056,*6E
$GPGSA,A,3,04,06,07,09,11,16,20,26,29,30,,,1.0,0.6,0.7*37
$GPVTG,178.0,T,178.0,M,1.8,N,3.3,K,D*2F
$GPRMC,111040,A,4930.144133,N,00556.930158,E,1.8,178.0,271022,1.1,W,D*04
$GPGGA,111040,4930.144133,N,00556.930158,E,2,10,0.6,322.0,M,48.0,M,,*42
$GPGSV,4,1,13,02,00,000,18,04,30,066,34,06,48,219,28,07,51,158,34*77
$GPGSV,4,2,13,09,68,060,39,11,48,277,29,16,12,056,32,20,35,299,28*79
$GPGSV,4,3,13,26,06,029,27,29,04,338,23,30,23,189,29,03,00,000,*7C
$GPGSV,4,4,13,05,00,000,*4E
$GLGSV,3,1,10,74,42,090,31,66,04,275,17,73,25,035,35,75,17,149,35*67
