
$GPRMC,065906.00,A,4929.96653,N,00556.75223,E,1.483,,190522,,,A*71
$GPGGA,065906.00,4929.96653,N,00556.75223,E,1,07,1.34,302.2,M,46.8,M,,*56
$GPGSA,A,3,25,24,12,32,22,02,06,,,,,,2.61,1.34,2.25*03
$GPRMC,065907.00,A,4929.96625,N,00556.75243,E,1.598,,190522,,,A*7C
$GPGSV,3,1,12,02,28,105,41,03,01,356,,06,23,058,27,11,21,103,29*76
$GPGSV,3,2,12,12,66,062,28,19,09,039,14,22,32,303,26,24,39,140,35*72
$GPGSV,3,3,12,25,63,274,20,29,25,199,27,31,12,305,29,32,40,276,23*78
$GPRMC,065908.00,A,4929.96651,N,00556.75304,E,0.251,,190522,,,A*71
$GPRMC,065909.00,A,4929.96557,N,00556.75297,E,1.486,,190522,,,A*73
$GPRMC,065910.00,A,4929.96526,N,00556.75354,E,0.670,,190522,,,A*79
$GPRMC,065911.00,A,4929.96523,N,00556.75439,E,0.514,,190522,,,A*70
$GPGGA,065911.00,4929.96523,N,00556.75439,E,1,08,1.25,320.5,M,46.8,M,,*51
$GPGSA,A,3,25,19,24,12,32,22,02,06,,,,,2.35,1.25,2.00*0D
$GPRMC,065912.00,A,4929.96552,N,00556.75522,E,0.947,,190522,,,A*74
$GPGSV,3,1,12,02,28,105,22,03,01,356,,06,23,058,26,11,22,103,21*79
$GPGSV,3,2,12,12,66,062,34,19,09,039,20,22,32,303,23,24,39,140,30*78
$GPGSV,3,3,12,25,63,274,29,29,25,199,27,31,12,305,27,32,40,276,23*7F
$GPRMC,065913.00,A,4929.96594,N,00556.75598,E,0.646,,190522,,,A*70
$GPRMC,065914.00,A,4929.96587,N,00556.75618,E,0.764,,190522,,,A*7F
$GPRMC,065915.00,A,4929.96519,N,00556.75608,E,1.394,,190522,,,A*72
$GPRMC,065916.00,A,4929.96431,N,00556.75616,E,1.852,185.40,190522,,,A*62
$GPGGA,065916.00,4929.96431,N,00556.75616,E,1,08,1.25,331.6,M,46.8,M,,*58
$GPGSA,A,3,25,19,24,12,32,22,02,06,,,,,2.35,1.25,2.00*0D
$GPRMC,065917.00,A,4929.96312,N,00556.75656,E,2.372,173.59,190522,,,A*6A
$GPGSV,3,1,12,02,28,105,21,03,01,356,,06,23,058,26,11,22,103,23*78
$GPGSV,3,2,12,12,66,062,28,19,09,039,23,22,32,303,21,24,39,140,38*7C
$GPGSV,3,3,12,25,63,274,25,29,25,199,40,31,12,305,28,32,40,276,32*7D
$GPRMC,065918.00,A,4929.96190,N,00556.75730,E,2.893,158.11,190522,,,A*6D
$GPRMC,065919.00,A,4929.96066,N,00556.75762,E,2.751,151.96,190522,,,A*64
$GPRMC,065920.00,A,4929.95982,N,00556.75803,E,2.077,,190522,,,A*71
$GPRMC,065921.00,A,4929.95921,N,00556.75864,E,2.028,,190522,,,A*72
$GPGGA,065921.00,4929.95921,N,00556.75864,E,1,07,1.35,339.9,M,46.8,M,,*51
$GPGSA,A,3,25,19,24,12,32,22,06,,,,,,2.46,1.35,2.05*0F
$GPRMC,065922.00,A,4929.95808,N,00556.75944,E,2.811,139.63,190522,,,A*6A
$GPGSV,3,1,12,02,28,105,22,03,01,356,,06,23,058,22,11,22,103,24*78
$GPGSV,3,2,12,12,66,062,17,19,09,039,22,22,33,303,25,24,39,140,32*7E
$GPGSV,3,3,12,25,63,274,26,29,25,199,41,31,12,305,30,32,40,276,33*77
$GPRMC,065923.00,A,4929.95672,N,00556.75982,E,3.036,137.42,190522,,,A*63
$GPRMC,065924.00,A,4929.95583,N,00556.76036,E,2.812,133.74,190522,,,A*62
$GPRMC,065925.00,A,4929.95464,N,00556.76095,E,3.117,128.86,190522,,,A*68
$GPRMC,065926.00,A,4929.95372,N,00556.76138,E,2.854,126.14,190522,,,A*67
$GPGGA,065926.00,4929.95372,N,00556.76138,E,1,08,1.24,346.1,M,46.8,M,,*56
$GPGSA,A,3,25,19,24,12,32,22,02,06,,,,,2.35,1.24,1.99*0F
$GPRMC,065927.00,A,4929.95286,N,00556.76180,E,2.531,125.25,190522,,,A*60
$GPGSV,3,1,12,02,28,105,22,03,01,356,,06,23,058,19,11,22,103,24*70
$GPGSV,3,2,12,12,66,062,16,19,09,039,24,22,33,303,26,24,38,140,40*7E
$GPGSV,3,3,12,25,64,274,25,29,26,199,36,31,12,305,23,32,40,276,26*76
$GPRMC,065928.00,A,4929.95200,N,00556.76159,E,2.004,,190522,,,A*79
$GPRMC,065929.00,A,4929.95100,N,00556.76162,E,2.129,,190522,,,A*7D
$GPRMC,065930.00,A,4929.94971,N,00556.76172,E,2.731,140.79,190522,,,A*61
$GPRMC,065931.00,A,4929.94912,N,00556.76190,E,1.533,,190522,,,A*7F
$GPGGA,065931.00,4929.94912,N,00556.76190,E,1,07,1.33,348.6,M,46.8,M,,*5F
$GPGSA,A,3,25,19,24,12,32,22,02,,,,,,2.40,1.33,2.00*0E
$GPRMC,065932.00,A,4929.94859,N,00556.76112,E,0.942,,190522,,,A*73
$GPGSV,3,1,12,02,28,105,20,03,01,356,09,06,23,058,22,11,22,103,21*76
$GPGSV,3,2,12,12,66,062,29,19,09,039,21,22,33,303,35,24,38,140,22*71
$GPGSV,3,3,12,25,64,274,22,29,26,199,37,31,12,305,21,32,40,276,27*73
$GPRMC,065933.00,A,4929.94844,N,00556.76032,E,0.464,,190522,,,A*74
$GPRMC,065934.00,A,4929.94872,N,00556.76056,E,0.304,,190522,,,A*75
$GPRMC,065935.00,A,4929.94931,N,00556.76084,E,0.424,,190522,,,A*78
$GPRMC,065936.00,A,4929.95001,N,00556.76115,E,0.771,,190522,,,A*7A
$GPGGA,065936.00,4929.95001,N,00556.76115,E,1,08,1.24,344.3,M,46.8,M,,*5F
$GPGSA,A,3,25,19,24,12,32,22,02,06,,,,,2.35,1.24,1.99*0F
$GPRMC,065937.00,A,4929.95024,N,00556.76143,E,0.501,,190522,,,A*7A
$GPGSV,3,1,12,02,28,105,20,03,01,356,,06,23,058,23,11,22,103,20*7F
$GPGSV,3,2,12,12,66,062,26,19,09,039,25,22,33,303,30,24,38,140,28*75
$GPGSV,3,3,12,25,64,274,27,29,26,199,33,31,12,305,20,32,40,276,26*72
$GPRMC,065938.00,A,4929.95072,N,00556.76180,E,0.339,,190522,,,A*74
$GPRMC,065939.00,A,4929.95119,N,00556.76254,E,0.276,,190522,,,A*79
$GPRMC,065940.00,A,4929.95189,N,00556.76321,E,0.885,,190522,,,A*7B
$GPRMC,065941.00,A,4929.95229,N,00556.76388,E,1.016,,190522,,,A*73
$GPGGA,065941.00,4929.95229,N,00556.76388,E,1,08,1.24,342.6,M,46.8,M,,*52
$GPGSA,A,3,25,19,24,12,32,22,02,06,,,,,2.35,1.24,1.99*0F
$GPRMC,065942.00,A,4929.95254,N,00556.76430,E,0.747,,190522,,,A*7C
$GPGSV,3,1,12,02,28,105,20,03,01,356,,06,23,058,23,11,22,103,17*7B
$GPGSV,3,2,12,12,66,062,23,19,09,039,19,22,33,303,19,24,38,140,19*76
$GPGSV,3,3,12,25,64,274,22,29,26,199,23,31,12,305,20,32,40,276,29*79
$GPRMC,065943.00,A,4929.95308,N,00556.76489,E,0.746,,190522,,,A*76
$GPRMC,065944.00,A,4929.95434,N,00556.76628,E,0.634,,190522,,,A*74
$GPRMC,065945.00,A,4929.95544,N,00556.76754,E,0.758,,190522,,,A*72
$GPRMC,065946.00,A,4929.95696,N,00556.76868,E,1.007,,190522,,,A*71
$GPGGA,065946.00,4929.95696,N,00556.76868,E,1,08,1.24,339.4,M,46.8,M,,*5E
$GPGSA,A,3,25,19,24,12,32,22,02,06,,,,,2.34,1.24,1.99*0E
$GPRMC,065947.00,A,4929.95786,N,00556.76936,E,1.210,,190522,,,A*7E
$GPGSV,3,1,12,02,28,105,26,03,02,356,,06,23,058,35,11,22,103,31*7D
$GPGSV,3,2,12,12,66,062,25,19,09,039,24,22,33,303,20,24,38,140,*7C
$GPGSV,3,3,12,25,64,274,17,29,26,199,23,31,12,305,18,32,40,276,23*7E
$GPRMC,065948.00,A,4929.95859,N,00556.76972,E,1.316,,190522,,,A*7B
$GPRMC,065949.00,A,4929.95963,N,00556.77101,E,0.689,,190522,,,A*7D
$GPRMC,065950.00,A,4929.96034,N,00556.77165,E,0.581,,190522,,,A*74
$GPRMC,065951.00,A,4929.96142,N,00556.77303,E,1.203,,190522,,,A*7B
$GPGGA,065951.00,4929.96142,N,00556.77303,E,1,08,1.24,339.0,M,46.8,M,,*56
$GPGSA,A,3,25,19,24,12,32,22,02,06,,,,,2.34,1.24,1.99*0E
$GPRMC,065952.00,A,4929.96237,N,00556.77351,E,1.697,72.51,190522,,,A*58
$GPGSV,3,1,12,02,28,105,16,03,02,356,,06,23,057,41,11,22,103,32*71
$GPGSV,3,2,12,12,66,062,28,19,09,039,26,22,33,303,30,24,38,140,23*73
$GPGSV,3,3,12,25,64,274,29,29,26,199,20,31,12,305,23,32,40,276,30*7A
$GPRMC,065953.00,A,4929.96344,N,00556.77466,E,1.993,49.16,190522,,,A*5F
$GPRMC,065954.00,A,4929.96489,N,00556.77561,E,2.697,29.33,190522,,,A*51
$GPRMC,065955.00,A,4929.96553,N,00556.77690,E,2.674,35.79,190522,,,A*55
$GPRMC,065956.00,A,4929.96623,N,00556.77859,E,2.686,37.97,190522,,,A*56
$GPGGA,065956.00,4929.96623,N,00556.77859,E,1,08,1.24,336.1,M,46.8,M,,*5B
$GPGSA,A,3,25,19,24,12,32,22,02,06,,,,,2.34,1.24,1.99*0E
$GPRMC,065957.00,A,4929.96578,N,00556.77930,E,1.452,45.19,190522,,,A*5F
$GPGSV,3,1,12,02,28,105,39,03,02,356,,06,23,057,33,11,22,103,38*73
$GPGSV,3,2,12,12,66,062,38,19,09,039,28,22,33,303,29,24,38,140,36*70
$GPGSV,3,3,12,25,64,274,28,29,26,199,34,31,12,305,33,32,40,276,28*76
$GPRMC,065958.00,A,4929.96631,N,00556.78005,E,1.695,45.12,190522,,,A*5C
$GPRMC,065959.00,A,4929.96688,N,00556.78111,E,2.283,37.11,190522,,,A*5D
$GPRMC,070000.00,A,4929.96752,N,00556.78220,E,2.526,36.77,190522,,,A*52
$GPRMC,070001.00,A,4929.96824,N,00556.78300,E,2.184,32.61,190522,,,A*51
$GPGGA,070001.00,4929.96824,N,00556.78300,E,1,08,1.24,333.6,M,46.8,M,,*57
$GPGSA,A,3,25,19,24,12,32,22,02,06,,,,,2.34,1.24,1.98*0F
$GPRMC,070002.00,A,4929.96915,N,00556.78420,E,2.007,32.51,190522,,,A*5D
$GPGSV,3,1,12,02,28,105,23,03,02,356,14,06,23,057,38,11,22,103,26*79
$GPGSV,3,2,12,12,66,062,23,19,08,039,32,22,33,303,27,24,38,140,30*78
$GPGSV,3,3,12,25,64,274,24,29,26,199,24,31,12,305,35,32,40,276,31*75
$GPRMC,070003.00,A,4929.96997,N,00556.78533,E,2.057,34.65,190522,,,A*51
$GPRMC,070004.00,A,4929.97064,N,00556.78608,E,1.699,35.70,190522,,,A*5B
$GPRMC,070005.00,A,4929.97132,N,00556.78671,E,1.766,27.99,190522,,,A*53
$GPRMC,070006.00,A,4929.97210,N,00556.78733,E,1.937,16.12,190522,,,A*5F
$GPGGA,070006.00,4929.97210,N,00556.78733,E,1,07,1.69,332.4,M,46.8,M,,*5D
$GPGSA,A,3,25,19,12,32,22,02,06,,,,,,2.72,1.69,2.12*03
$GPRMC,070007.00,A,4929.97279,N,00556.78792,E,1.889,14.54,190522,,,A*5E
$GPGSV,3,1,12,02,28,105,32,03,02,356,,06,23,057,43,11,22,103,36*71
$GPGSV,3,2,12,12,66,062,34,19,08,039,27,22,33,303,31,24,38,140,30*7D
$GPGSV,3,3,12,25,64,274,23,29,26,199,23,31,12,305,32,32,40,276,25*77
$GPRMC,070008.00,A,4929.97386,N,00556.78846,E,2.147,16.10,190522,,,A*5C
$GPRMC,070009.00,A,4929.97496,N,00556.78882,E,2.690,16.49,190522,,,A*52
$GPRMC,070010.00,A,4929.97599,N,00556.78932,E,2.934,16.68,190522,,,A*5C
$GPRMC,070011.00,A,4929.97698,N,00556.78974,E,2.995,17.80,190522,,,A*51
$GPGGA,070011.00,4929.97698,N,00556.78974,E,1,08,1.24,329.6,M,46.8,M,,*5C
$GPGSA,A,3,25,19,24,12,32,22,02,06,,,,,2.34,1.24,1.98*0F
$GPRMC,070012.00,A,4929.97786,N,00556.79017,E,2.934,18.42,190522,,,A*5B
$GPGSV,3,1,12,02,28,105,30,03,02,356,13,06,23,057,35,11,22,103,32*74
$GPGSV,3,2,12,12,66,062,24,19,08,039,26,22,33,303,29,24,38,140,28*7D
$GPGSV,3,3,12,25,64,275,30,29,26,199,24,31,12,305,33,32,40,276,32*74
$GPRMC,070013.00,A,4929.97882,N,00556.79056,E,2.975,19.39,190522,,,A*5C
$GPRMC,070014.00,A,4929.97969,N,00556.79101,E,3.051,21.20,190522,,,A*51
$GPRMC,070015.00,A,4929.98046,N,00556.79126,E,2.815,20.97,190522,,,A*5A
$GPRMC,070016.00,A,4929.98114,N,00556.79158,E,2.605,22.80,190522,,,A*5D
$GPGGA,070016.00,4929.98114,N,00556.79158,E,1,08,1.24,327.5,M,46.8,M,,*5D
$GPGSA,A,3,25,19,24,12,32,22,02,06,,,,,2.34,1.24,1.98*0F
$GPRMC,070017.00,A,4929.98203,N,00556.79213,E,3.007,23.97,190522,,,A*57
$GPGSV,3,1,12,02,28,105,33,03,02,356,,06,23,057,32,11,22,103,38*78
$GPGSV,3,2,12,12,66,062,34,19,08,039,26,22,33,303,34,24,38,140,32*7B
$GPGSV,3,3,12,25,64,275,24,29,26,199,26,31,12,305,35,32,40,276,32*75
$GPRMC,070018.00,A,4929.98284,N,00556.79279,E,2.736,25.64,190522,,,A*55
$GPRMC,070019.00,A,4929.98363,N,00556.79320,E,2.862,26.55,190522,,,A*5E
$GPRMC,070020.00,A,4929.98432,N,00556.79375,E,2.757,27.24,190522,,,A*59
$GPRMC,070021.00,A,4929.98502,N,00556.79416,E,2.644,25.73,190522,,,A*5B
$GPGGA,070021.00,4929.98502,N,00556.79416,E,1,08,1.24,328.4,M,46.8,M,,*5B
$GPGSA,A,3,25,19,24,12,32,22,02,06,,,,,2.33,1.24,1.98*08
$GPRMC,070022.00,A,4929.98563,N,00556.79457,E,2.291,24.31,190522,,,A*51
$GPGSV,3,1,12,02,28,105,31,03,02,356,,06,23,057,29,11,22,103,27*7E
$GPGSV,3,2,12,12,66,062,33,19,08,039,24,22,33,303,32,24,38,140,35*7F
$GPGSV,3,3,12,25,64,275,24,29,26,199,29,31,12,305,34,32,40,276,32*7B
$GPRMC,070023.00,A,4929.98650,N,00556.79494,E,2.822,22.81,190522,,,A*53
$GPRMC,070024.00,A,4929.98748,N,00556.79525,E,3.100,17.14,190522,,,A*55
$GPRMC,070025.00,A,4929.98837,N,00556.79576,E,2.909,17.77,190522,,,A*50
$GPRMC,070026.00,A,4929.98929,N,00556.79685,E,2.955,22.65,190522,,,A*5E
$GPGGA,070026.00,4929.98929,N,00556.79685,E,1,08,1.24,330.0,M,46.8,M,,*5C
$GPGSA,A,3,25,19,24,12,32,22,02,06,,,,,2.33,1.24,1.98*08
$GPRMC,070027.00,A,4929.99024,N,00556.79772,E,2.930,24.11,190522,,,A*55
$GPGSV,3,1,12,02,28,105,25,03,02,356,,06,23,057,31,11,22,103,23*76
$GPGSV,3,2,12,12,66,062,33,19,08,039,25,22,33,303,31,24,38,140,26*7F
$GPGSV,3,3,12,25,64,275,22,29,26,199,28,31,12,305,23,32,40,276,38*70
$GPRMC,070028.00,A,4929.99109,N,00556.79843,E,3.038,24.71,190522,,,A*5F
$GPRMC,070029.00,A,4929.99183,N,00556.79909,E,2.720,24.54,190522,,,A*5B
$GPRMC,070030.00,A,4929.99259,N,00556.79951,E,2.113,20.35,190522,,,A*5F
$GPRMC,070031.00,A,4929.99318,N,00556.79990,E,1.863,21.45,190522,,,A*5C
$GPGGA,070031.00,4929.99318,N,00556.79990,E,1,08,1.24,332.0,M,46.8,M,,*5A
$GPGSA,A,3,25,19,24,12,32,22,02,06,,,,,2.33,1.24,1.98*08
$GPRMC,070032.00,A,4929.99416,N,00556.80042,E,2.491,21.70,190522,,,A*52
$GPGSV,3,1,12,02,28,104,30,03,02,355,17,06,23,057,36,11,22,103,24*76
$GPGSV,3,2,12,12,66,062,33,19,08,039,20,22,33,303,34,24,38,140,21*78
$GPGSV,3,3,12,25,64,275,23,29,26,199,31,31,12,305,25,32,40,276,33*74
$GPRMC,070033.00,A,4929.99488,N,00556.80086,E,2.412,23.16,190522,,,A*55
$GPRMC,070034.00,A,4929.99571,N,00556.80141,E,2.375,21.68,190522,,,A*52
$GPRMC,070035.00,A,4929.99623,N,00556.80186,E,1.807,20.11,190522,,,A*5E
$GPRMC,070036.00,A,4929.99685,N,00556.80226,E,1.849,20.98,190522,,,A*53
$GPGGA,070036.00,4929.99685,N,00556.80226,E,1,08,1.24,334.3,M,46.8,M,,*59
$GPGSA,A,3,25,19,24,12,32,22,02,06,,,,,2.33,1.24,1.97*07
$GPRMC,070037.00,A,4929.99739,N,00556.80262,E,1.808,22.31,190522,,,A*50
$GPGSV,3,1,12,02,28,104,25,03,02,355,,06,23,057,31,11,22,103,24*73
$GPGSV,3,2,12,12,66,062,28,19,08,039,21,22,33,303,35,24,38,140,23*70
$GPGSV,3,3,12,25,64,275,25,29,26,199,25,31,12,305,24,32,40,276,30*75
$GPRMC,070038.00,A,4929.99795,N,00556.80302,E,1.778,27.17,190522,,,A*57
$GPRMC,070039.00,A,4929.99887,N,00556.80361,E,2.393,31.21,190522,,,A*5F
$GPRMC,070040.00,A,4929.99948,N,00556.80403,E,1.790,31.45,190522,,,A*56
$GPRMC,070041.00,A,4930.00009,N,00556.80433,E,1.596,27.25,190522,,,A*55
$GPGGA,070041.00,4930.00009,N,00556.80433,E,1,08,1.24,336.8,M,46.8,M,,*58
$GPGSA,A,3,25,19,24,12,32,22,02,06,,,,,2.33,1.24,1.97*07
$GPRMC,070042.00,A,4930.00082,N,00556.80463,E,1.685,20.12,190522,,,A*52
$GPGSV,3,1,12,02,28,104,25,03,02,355,,06,23,057,32,11,22,102,25*70
$GPGSV,3,2,12,12,65,063,32,19,08,039,22,22,33,303,35,24,38,140,22*7B
$GPGSV,3,3,12,25,64,275,24,29,26,199,26,31,12,305,26,32,40,276,35*70
$GPRMC,070043.00,A,4930.00170,N,00556.80504,E,2.472,20.21,190522,,,A*56
$GPRMC,070044.00,A,4930.00230,N,00556.80535,E,1.771,23.89,190522,,,A*56
$GPRMC,070045.00,A,4930.00297,N,00556.80573,E,1.839,31.14,190522,,,A*5C
$GPRMC,070046.00,A,4930.00400,N,00556.80613,E,2.300,34.61,190522,,,A*57
$GPGGA,070046.00,4930.00400,N,00556.80613,E,1,08,1.24,338.7,M,46.8,M,,*53
$GPGSA,A,3,25,19,24,12,32,22,02,06,,,,,2.33,1.24,1.97*07
$GPRMC,070047.00,A,4930.00506,N,00556.80680,E,2.668,35.89,190522,,,A*57
$GPGSV,3,1,12,02,28,104,26,03,02,355,,06,23,057,25,11,22,102,23*73
$GPGSV,3,2,12,12,65,063,29,19,08,039,25,22,33,303,26,24,38,140,23*75
$GPGSV,3,3,12,25,64,275,22,29,26,199,28,31,12,305,21,32,40,276,35*7F
$GPRMC,070048.00,A,4930.00577,N,00556.80719,E,2.273,34.96,190522,,,A*5E
$GPRMC,070049.00,A,4930.00681,N,00556.80773,E,2.383,31.13,190522,,,A*5F
$GPRMC,070050.00,A,4930.00739,N,00556.80837,E,1.940,,190522,,,A*72
$GPRMC,070051.00,A,4930.00809,N,00556.80875,E,1.869,29.83,190522,,,A*5D
$GPGGA,070051.00,4930.00809,N,00556.80875,E,1,08,1.23,338.4,M,46.8,M,,*5A
$GPGSA,A,3,25,19,24,12,32,22,02,06,,,,,2.33,1.23,1.97*00
$GPRMC,070052.00,A,4930.00909,N,00556.80951,E,2.069,30.40,190522,,,A*54
$GPGSV,3,1,12,02,28,104,22,03,02,355,,06,23,057,37,11,22,102,22*75
$GPGSV,3,2,12,12,65,063,27,19,08,039,35,22,33,302,14,24,38,140,24*7D
$GPGSV,3,3,12,25,64,275,22,29,26,199,27,31,12,305,18,32,40,276,27*79
$GPRMC,070053.00,A,4930.01012,N,00556.81019,E,1.663,28.15,190522,,,A*55
$GPRMC,070054.00,A,4930.01083,N,00556.81059,E,1.360,,190522,,,A*78
$GPRMC,070055.00,A,4930.01131,N,00556.81084,E,1.296,,190522,,,A*79
$GPRMC,070056.00,A,4930.01183,N,00556.81073,E,1.390,,190522,,,A*7C
$GPGGA,070056.00,4930.01183,N,00556.81073,E,1,08,1.23,334.4,M,46.8,M,,*54
$GPGSA,A,3,25,19,24,12,32,22,02,06,,,,,2.32,1.23,1.97*01
$GPRMC,070057.00,A,4930.01228,N,00556.81049,E,1.362,,190522,,,A*7B
$GPGSV,3,1,12,02,28,104,24,03,02,355,,06,23,057,29,11,22,102,23*7D
$GPGSV,3,2,12,12,65,063,28,19,08,039,20,22,33,302,10,24,38,140,23*75
$GPGSV,3,3,12,25,64,275,09,29,26,199,28,31,12,305,14,32,40,276,19*7E
$GPRMC,070058.00,A,4930.01265,N,00556.81038,E,1.107,,190522,,,A*7A
$GPRMC,070059.00,A,4930.01319,N,00556.81031,E,1.242,,190522,,,A*7A
$GPRMC,070100.00,A,4930.01400,N,00556.81033,E,1.621,,190522,,,A*7B
$GPRMC,070101.00,A,4930.01443,N,00556.81082,E,1.266,,190522,,,A*70
$GPGGA,070101.00,4930.01443,N,00556.81082,E,1,07,1.32,333.6,M,46.8,M,,*5A
$GPGSA,A,3,25,19,24,12,32,02,06,,,,,,2.43,1.32,2.04*0E
$GPRMC,070102.00,A,4930.01500,N,00556.81077,E,1.427,,190522,,,A*7C
$GPGSV,3,1,12,02,28,104,25,03,02,355,,06,23,057,35,11,22,102,23*71
$GPGSV,3,2,12,12,65,063,29,19,08,039,14,22,33,302,08,24,38,140,22*7B
$GPGSV,3,3,12,25,64,275,10,29,26,199,28,31,12,305,15,32,40,275,11*7C
$GPRMC,070103.00,A,4930.01535,N,00556.81161,E,1.231,,190522,,,A*7C
$GPRMC,070104.00,A,4930.01568,N,00556.81359,E,1.777,50.44,190522,,,A*56
$GPRMC,070105.00,A,4930.01629,N,00556.81433,E,1.636,,190522,,,A*75
$GPRMC,070106.00,A,4930.01642,N,00556.81492,E,1.677,,190522,,,A*75
$GPGGA,070106.00,4930.01642,N,00556.81492,E,1,07,1.24,332.8,M,46.8,M,,*53
$GPGSA,A,3,19,24,12,32,22,02,06,,,,,,2.51,1.24,2.18*00
$GPRMC,070107.00,A,4930.01683,N,00556.81583,E,1.622,,190522,,,A*78
$GPGSV,3,1,12,02,28,104,29,03,02,355,,06,23,057,24,11,22,102,26*78
$GPGSV,3,2,12,12,65,063,28,19,08,039,15,22,33,302,10,24,38,140,25*75
$GPGSV,3,3,12,25,64,275,12,29,26,199,26,31,12,305,21,32,40,275,16*70
$GPRMC,070108.00,A,4930.01712,N,00556.81672,E,1.907,,190522,,,A*7B
$GPRMC,070109.00,A,4930.01726,N,00556.81754,E,1.551,,190522,,,A*77
$GPRMC,070110.00,A,4930.01752,N,00556.81828,E,1.487,,190522,,,A*72
$GPRMC,070111.00,A,4930.01796,N,00556.81902,E,0.995,,190522,,,A*7D
$GPGGA,070111.00,4930.01796,N,00556.81902,E,1,08,1.23,333.0,M,46.8,M,,*58
$GPGSA,A,3,25,19,24,12,32,22,02,06,,,,,2.32,1.23,1.96*00
$GPRMC,070112.00,A,4930.01841,N,00556.81987,E,1.036,,190522,,,A*77
$GPGSV,3,1,12,02,28,104,33,03,02,355,09,06,23,057,23,11,22,102,26*7D
$GPGSV,3,2,12,12,65,063,26,19,08,039,15,22,33,302,13,24,38,140,23*7E
$GPGSV,3,3,12,25,64,275,10,29,26,199,26,31,12,305,26,32,40,275,17*74
$GPRMC,070113.00,A,4930.01918,N,00556.82068,E,1.635,,190522,,,A*75
$GPRMC,070114.00,A,4930.01951,N,00556.82186,E,1.594,,190522,,,A*76
$GPRMC,070115.00,A,4930.01997,N,00556.82272,E,1.156,,190522,,,A*7F
$GPRMC,070116.00,A,4930.02085,N,00556.82351,E,1.096,,190522,,,A*78
$GPGGA,070116.00,4930.02085,N,00556.82351,E,1,06,1.32,334.8,M,46.8,M,,*57
$GPGSA,A,3,24,12,32,22,02,06,,,,,,,2.94,1.32,2.62*0B
$GPRMC,070117.00,A,4930.02241,N,00556.82453,E,2.120,,190522,,,A*79
$GPGSV,3,1,12,02,28,104,29,03,02,355,08,06,23,057,42,11,22,102,32*75
$GPGSV,3,2,12,12,65,063,39,19,08,039,15,22,33,302,13,24,38,140,26*75
$GPGSV,3,3,12,25,64,275,17,29,26,199,25,31,12,305,22,32,40,275,21*71
$GPRMC,070118.00,A,4930.02300,N,00556.82592,E,2.276,41.73,190522,,,A*51
$GPRMC,070119.00,A,4930.02379,N,00556.82739,E,2.453,39.44,190522,,,A*57
$GPRMC,070120.00,A,4930.02452,N,00556.82990,E,2.761,44.20,190522,,,A*54
$GPRMC,070121.00,A,4930.02529,N,00556.83148,E,2.511,45.39,190522,,,A*58
$GPGGA,070121.00,4930.02529,N,00556.83148,E,1,06,1.80,333.8,M,46.8,M,,*55
$GPGSA,A,3,25,19,24,12,02,06,,,,,,,3.06,1.80,2.48*0E
$GPRMC,070122.00,A,4930.02584,N,00556.83295,E,2.570,46.24,190522,,,A*57
$GPGSV,3,1,12,02,28,104,28,03,02,355,,06,23,057,37,11,22,102,26*7B
$GPGSV,3,2,12,12,65,063,34,19,08,039,08,22,33,302,20,24,38,140,30*73
$GPGSV,3,3,12,25,64,275,19,29,26,199,24,31,12,305,21,32,40,275,23*7F
$GPRMC,070123.00,A,4930.02645,N,00556.83545,E,2.439,45.60,190522,,,A*5D
$GPRMC,070124.00,A,4930.02721,N,00556.83651,E,2.268,34.43,190522,,,A*5A
$GPRMC,070125.00,A,4930.02808,N,00556.83808,E,2.442,31.70,190522,,,A*56
$GPRMC,070126.00,A,4930.02887,N,00556.83962,E,2.426,27.06,190522,,,A*5B
$GPGGA,070126.00,4930.02887,N,00556.83962,E,1,07,1.36,333.8,M,46.8,M,,*57
$GPGSA,A,3,25,19,24,12,22,02,06,,,,,,2.46,1.36,2.05*0F
$GPRMC,070127.00,A,4930.02935,N,00556.84093,E,2.188,27.90,190522,,,A*5C
$GPGSV,3,1,12,02,28,104,33,03,02,355,,06,23,057,37,11,22,102,30*76
$GPGSV,3,2,12,12,65,063,30,19,08,039,15,22,33,302,21,24,38,140,28*73
$GPGSV,3,3,12,25,64,275,22,29,26,199,26,31,12,305,17,32,40,275,24*77
$GPRMC,070128.00,A,4930.03027,N,00556.84252,E,3.050,35.38,190522,,,A*53
$GPRMC,070129.00,A,4930.03061,N,00556.84384,E,1.927,,190522,,,A*72
$GPRMC,070130.00,A,4930.03121,N,00556.84525,E,1.521,,190522,,,A*78
$GPRMC,070131.00,A,4930.03158,N,00556.84638,E,1.319,,190522,,,A*75
$GPGGA,070131.00,4930.03158,N,00556.84638,E,1,08,1.36,336.8,M,46.8,M,,*56
$GPGSA,A,3,25,19,24,12,32,22,02,06,,,,,2.46,1.36,2.05*0E
$GPRMC,070132.00,A,4930.03259,N,00556.84763,E,2.312,26.49,190522,,,A*54
$GPGSV,3,1,12,02,28,104,33,03,02,355,,06,23,057,43,11,22,102,29*7D
$GPGSV,3,2,12,12,65,063,26,19,08,039,18,22,33,302,23,24,38,140,28*7B
$GPGSV,3,3,12,25,64,275,20,29,26,199,32,31,12,305,28,32,40,275,23*7B
$GPRMC,070133.00,A,4930.03314,N,00556.85003,E,2.236,29.16,190522,,,A*5F
$GPRMC,070134.00,A,4930.03373,N,00556.85123,E,2.067,,190522,,,A*7E
$GPRMC,070135.00,A,4930.03461,N,00556.85231,E,2.499,26.11,190522,,,A*54
$GPRMC,070136.00,A,4930.03563,N,00556.85412,E,2.992,23.79,190522,,,A*5E
$GPGGA,070136.00,4930.03563,N,00556.85412,E,1,08,1.23,339.1,M,46.8,M,,*54
$GPGSA,A,3,25,19,24,12,32,22,02,06,,,,,2.31,1.23,1.96*03
$GPRMC,070137.00,A,4930.03660,N,00556.85488,E,3.022,23.40,190522,,,A*55
$GPGSV,3,1,12,02,28,104,32,03,02,355,,06,23,057,39,11,22,102,30*79
$GPGSV,3,2,12,12,65,063,38,19,08,039,19,22,33,302,35,24,37,140,35*71
$GPGSV,3,3,12,25,65,276,22,29,26,199,28,31,12,305,25,32,40,275,25*7B
$GPRMC,070138.00,A,4930.03762,N,00556.85157,E,2.941,11.70,190522,,,A*51
$GPRMC,070139.00,A,4930.03861,N,00556.85038,E,2.495,8.71,190522,,,A*69
$GPRMC,070140.00,A,4930.03934,N,00556.84846,E,2.310,14.58,190522,,,A*5A
$GPRMC,070141.00,A,4930.04007,N,00556.84768,E,2.075,17.61,190522,,,A*5F
$GPGGA,070141.00,4930.04007,N,00556.84768,E,1,08,1.23,332.3,M,46.8,M,,*52
$GPGSA,A,3,25,19,24,12,32,22,02,06,,,,,2.31,1.23,1.96*03
$GPRMC,070142.00,A,4930.04123,N,00556.84837,E,3.291,19.16,190522,,,A*59
$GPGSV,3,1,12,02,28,104,35,03,02,355,,06,23,057,21,11,22,102,41*71
$GPGSV,3,2,12,12,65,063,37,19,08,039,17,22,33,302,28,24,37,140,29*71
$GPGSV,3,3,12,25,65,276,23,29,27,199,26,31,13,305,24,32,40,275,25*75
$GPRMC,070143.00,A,4930.04229,N,00556.84913,E,3.565,17.45,190522,,,A*52
$GPRMC,070144.00,A,4930.04275,N,00556.84953,E,2.519,15.20,190522,,,A*53
$GPRMC,070145.00,A,4930.04254,N,00556.84984,E,1.000,,190522,,,A*7D
$GPRMC,070146.00,A,4930.04298,N,00556.85022,E,1.526,6.37,190522,,,A*67
$GPGGA,070146.00,4930.04298,N,00556.85022,E,1,08,1.32,335.4,M,46.8,M,,*59
$GPGSA,A,3,25,19,24,12,32,22,02,06,,,,,2.36,1.32,1.96*04
$GPRMC,070147.00,A,4930.04284,N,00556.85017,E,0.982,,190522,,,A*72
$GPGSV,3,1,12,02,28,104,28,03,02,355,,06,23,057,22,11,22,102,28*71
$GPGSV,3,2,12,12,65,063,26,19,08,039,20,22,33,302,26,24,37,140,32*71
$GPGSV,3,3,12,25,65,276,25,29,27,199,25,31,13,305,25,32,40,275,33*76
$GPRMC,070148.00,A,4930.04301,N,00556.85003,E,1.325,,190522,,,A*72
$GPRMC,070149.00,A,4930.04359,N,00556.84990,E,1.553,,190522,,,A*7B
$GPRMC,070150.00,A,4930.04394,N,00556.84970,E,2.056,,190522,,,A*7F
$GPRMC,070151.00,A,4930.04430,N,00556.85056,E,1.582,7.93,190522,,,A*67
$GPGGA,070151.00,4930.04430,N,00556.85056,E,1,08,1.23,340.1,M,46.8,M,,*5F
$GPGSA,A,3,25,19,24,12,32,22,02,06,,,,,2.31,1.23,1.95*00
$GPRMC,070152.00,A,4930.04495,N,00556.85081,E,2.088,355.36,190522,,,A*66
$GPGSV,3,1,12,02,28,104,39,03,02,355,,06,23,057,22,11,22,102,29*70
$GPGSV,3,2,12,12,65,063,28,19,08,039,17,22,33,302,27,24,37,140,30*78
$GPGSV,3,3,12,25,65,276,27,29,27,199,31,31,13,305,26,32,40,275,28*78
$GPRMC,070153.00,A,4930.04544,N,00556.85217,E,2.014,351.48,190522,,,A*6F
$GPRMC,070154.00,A,4930.04498,N,00556.85197,E,1.096,,190522,,,A*7F
$GPRMC,070155.00,A,4930.04503,N,00556.85196,E,1.335,,190522,,,A*76
$GPRMC,070156.00,A,4930.04507,N,00556.85213,E,0.964,,190522,,,A*70
$GPGGA,070156.00,4930.04507,N,00556.85213,E,1,08,1.23,345.0,M,46.8,M,,*5A
$GPGSA,A,3,25,19,24,12,32,22,02,06,,,,,2.31,1.23,1.95*00
$GPRMC,070157.00,A,4930.04515,N,00556.85342,E,0.965,,190522,,,A*76
$GPGSV,3,1,12,02,29,104,35,03,02,355,,06,23,057,21,11,22,102,37*71
$GPGSV,3,2,12,12,65,063,34,19,08,039,17,22,33,302,34,24,37,140,34*73
$GPGSV,3,3,12,25,65,276,25,29,27,199,31,31,13,305,27,32,40,275,35*77
$GPRMC,070158.00,A,4930.04546,N,00556.85351,E,1.342,,190522,,,A*73
$GPRMC,070159.00,A,4930.04556,N,00556.85382,E,0.861,,190522,,,A*76
$GPRMC,070200.00,A,4930.04568,N,00556.85426,E,0.962,,190522,,,A*7F
$GPRMC,070201.00,A,4930.04594,N,00556.85486,E,0.944,,190522,,,A*73
$GPGGA,070201.00,4930.04594,N,00556.85486,E,1,08,1.32,351.9,M,46.8,M,,*57
$GPGSA,A,3,25,19,24,12,32,22,02,06,,,,,2.36,1.32,1.95*07
$GPRMC,070202.00,A,4930.04643,N,00556.85519,E,0.791,,190522,,,A*78
$GPGSV,3,1,12,02,29,104,30,03,02,355,,06,23,056,23,11,22,102,27*76
$GPGSV,3,2,12,12,65,063,34,19,08,039,19,22,33,302,29,24,37,140,35*70
$GPGSV,3,3,12,25,65,276,27,29,27,199,25,31,13,305,30,32,40,275,31*72
$GPRMC,070203.00,A,4930.04664,N,00556.85524,E,0.958,,190522,,,A*79
$GPRMC,070204.00,A,4930.04703,N,00556.85489,E,1.823,345.84,190522,,,A*64
$GPRMC,070205.00,A,4930.04749,N,00556.85512,E,1.676,348.94,190522,,,A*6A
$GPRMC,070206.00,A,4930.04848,N,00556.85519,E,2.507,3.71,190522,,,A*6D
$GPGGA,070206.00,4930.04848,N,00556.85519,E,1,08,1.31,355.8,M,46.8,M,,*5D
$GPGSA,A,3,25,19,24,12,32,22,02,06,,,,,2.60,1.31,2.25*0F
$GPRMC,070207.00,A,4930.04892,N,00556.85500,E,2.641,1.74,190522,,,A*65
$GPGSV,3,1,12,02,29,104,24,03,02,355,,06,23,056,22,11,22,102,27*72
$GPGSV,3,2,12,12,65,063,35,19,08,039,20,22,33,302,26,24,37,140,30*71
$GPGSV,3,3,12,25,65,276,28,29,27,199,30,31,13,305,31,32,40,275,32*7B
$GPRMC,070208.00,A,4930.04940,N,00556.85477,E,2.836,356.59,190522,,,A*65
$GPRMC,070209.00,A,4930.04998,N,00556.85511,E,2.862,350.87,190522,,,A*64
$GPRMC,070210.00,A,4930.05119,N,00556.85533,E,3.267,357.05,190522,,,A*6F
$GPRMC,070211.00,A,4930.05128,N,00556.85503,E,2.128,357.40,190522,,,A*67
$GPGGA,070211.00,4930.05128,N,00556.85503,E,1,08,1.32,359.8,M,46.8,M,,*51
$GPGSA,A,3,25,19,24,12,32,22,02,06,,,,,2.35,1.32,1.95*04
$GPRMC,070212.00,A,4930.05105,N,00556.85499,E,0.969,,190522,,,A*7D
$GPGSV,3,1,12,02,29,104,27,03,02,355,,06,23,056,23,11,22,102,31*77
$GPGSV,3,2,12,12,65,063,35,19,08,039,19,22,33,302,26,24,37,140,28*72
$GPGSV,3,3,12,25,65,276,27,29,27,199,33,31,13,305,31,32,40,275,31*74
$GPRMC,070213.00,A,4930.05170,N,00556.85465,E,1.062,,190522,,,A*7E
$GPRMC,070214.00,A,4930.05198,N,00556.85415,E,0.746,,190522,,,A*78
$GPRMC,070215.00,A,4930.05315,N,00556.85341,E,0.823,,190522,,,A*74
$GPRMC,070216.00,A,4930.05411,N,00556.85276,E,1.018,,190522,,,A*70
$GPGGA,070216.00,4930.05411,N,00556.85276,E,1,08,1.23,358.7,M,46.8,M,,*52
$GPGSA,A,3,25,19,24,12,32,22,02,06,,,,,2.30,1.23,1.95*01
$GPRMC,070217.00,A,4930.05448,N,00556.85276,E,0.847,,190522,,,A*7E
$GPGSV,3,1,12,02,29,104,25,03,02,355,,06,23,056,23,11,22,102,24*71
$GPGSV,3,2,12,12,65,063,35,19,08,039,20,22,33,302,36,24,37,140,25*74
$GPGSV,3,3,12,25,65,276,32,29,27,199,40,31,13,305,29,32,40,275,35*79
$GPRMC,070218.00,A,4930.05545,N,00556.85250,E,1.262,,190522,,,A*75
$GPRMC,070219.00,A,4930.05621,N,00556.85220,E,1.353,,190522,,,A*71
$GPRMC,070220.00,A,4930.05716,N,00556.85248,E,1.678,,190522,,,A*7C
$GPRMC,070221.00,A,4930.05791,N,00556.85261,E,1.877,7.67,190522,,,A*60
$GPGGA,070221.00,4930.05791,N,00556.85261,E,1,08,1.22,358.6,M,46.8,M,,*5B
$GPGSA,A,3,25,19,24,12,32,22,02,06,,,,,2.30,1.22,1.94*01
$GPRMC,070222.00,A,4930.05834,N,00556.85307,E,1.607,,190522,,,A*73
$GPGSV,3,1,12,02,29,104,23,03,02,355,,06,23,056,24,11,22,102,23*77
$GPGSV,3,2,12,12,65,063,25,19,08,039,18,22,33,302,31,24,37,140,24*78
$GPGSV,3,3,12,25,65,276,25,29,27,199,31,31,13,305,24,32,40,275,34*75
$GPRMC,070223.00,A,4930.05940,N,00556.85320,E,1.491,,190522,,,A*78
$GPRMC,070224.00,A,4930.06079,N,00556.85365,E,2.053,21.15,190522,,,A*5E
$GPRMC,070225.00,A,4930.06150,N,00556.85357,E,1.259,,190522,,,A*76
$GPRMC,070226.00,A,4930.06243,N,00556.85390,E,1.367,,190522,,,A*73
$GPGGA,070226.00,4930.06243,N,00556.85390,E,1,08,1.31,359.8,M,46.8,M,,*57
$GPGSA,A,3,25,19,24,12,32,22,02,06,,,,,2.60,1.31,2.25*0F
$GPRMC,070227.00,A,4930.06366,N,00556.85427,E,1.690,,190522,,,A*72
$GPGSV,3,1,12,02,29,104,23,03,02,355,,06,23,056,25,11,22,102,19*7F
$GPGSV,3,2,12,12,65,063,25,19,08,039,18,22,33,302,30,24,37,140,22*7F
$GPGSV,3,3,12,25,65,276,28,29,27,199,30,31,13,305,25,32,40,274,36*7B
$GPRMC,070228.00,A,4930.06490,N,00556.85451,E,1.876,23.52,190522,,,A*5C
$GPRMC,070229.00,A,4930.06621,N,00556.85474,E,1.992,25.78,190522,,,A*57
$GPRMC,070230.00,A,4930.06712,N,00556.85466,E,1.700,,190522,,,A*7E
$GPRMC,070231.00,A,4930.06806,N,00556.85417,E,1.762,,190522,,,A*77
$GPGGA,070231.00,4930.06806,N,00556.85417,E,1,08,1.31,361.3,M,46.8,M,,*52
$GPGSA,A,3,25,19,24,12,32,22,02,06,,,,,2.60,1.31,2.25*0F
$GPRMC,070232.00,A,4930.06916,N,00556.85380,E,1.820,14.53,190522,,,A*59
$GPGSV,3,1,12,02,29,104,19,03,02,355,,06,23,056,23,11,22,102,20*7A
$GPGSV,3,2,12,12,65,063,22,19,08,039,18,22,33,302,26,24,37,140,23*7E
$GPGSV,3,3,12,25,65,276,28,29,27,199,34,31,13,305,24,32,40,274,33*7B
$GPRMC,070233.00,A,4930.07018,N,00556.85382,E,1.852,,190522,,,A*74
$GPRMC,070234.00,A,4930.07175,N,00556.85463,E,2.973,28.00,190522,,,A*54
$GPRMC,070235.00,A,4930.07257,N,00556.85462,E,2.323,29.33,190522,,,A*59
$GPRMC,070236.00,A,4930.07338,N,00556.85448,E,2.458,25.82,190522,,,A*57
$GPGGA,070236.00,4930.07338,N,00556.85448,E,1,08,1.22,364.2,M,46.8,M,,*5E
$GPGSA,A,3,25,19,24,12,32,22,02,06,,,,,2.29,1.22,1.94*09
$GPRMC,070237.00,A,4930.07337,N,00556.85436,E,1.856,,190522,,,A*72
$GPGSV,3,1,12,02,29,104,18,03,02,355,,06,23,056,22,11,22,102,19*70
$GPGSV,3,2,12,12,65,063,21,19,08,039,19,22,33,302,21,24,37,140,19*72
$GPGSV,3,3,12,25,65,276,22,29,27,199,27,31,13,305,21,32,40,274,24*70
$GPRMC,070238.00,A,4930.07372,N,00556.85454,E,1.913,,190522,,,A*78
$GPRMC,070239.00,A,4930.07436,N,00556.85420,E,1.794,,190522,,,A*7C
$GPRMC,070240.00,A,4930.07524,N,00556.85343,E,2.022,,190522,,,A*7B
$GPRMC,070241.00,A,4930.07607,N,00556.85347,E,1.610,,190522,,,A*78
$GPGGA,070241.00,4930.07607,N,00556.85347,E,1,08,1.22,370.5,M,46.8,M,,*5D
$GPGSA,A,3,25,19,24,12,32,22,02,06,,,,,2.29,1.22,1.94*09
$GPRMC,070242.00,A,4930.07636,N,00556.85366,E,1.307,,190522,,,A*79
$GPGSV,3,1,12,02,29,103,23,03,02,355,,06,23,056,19,11,22,102,29*74
$GPGSV,3,2,12,12,65,063,34,19,08,039,20,22,33,302,23,24,37,140,20*74
$GPGSV,3,3,12,25,65,276,23,29,27,199,17,31,13,305,22,32,40,274,24*71
$GPRMC,070243.00,A,4930.07746,N,00556.85425,E,1.144,,190522,,,A*7B
$GPRMC,070244.00,A,4930.07876,N,00556.85486,E,1.070,,190522,,,A*7F
$GPRMC,070245.00,A,4930.08006,N,00556.85515,E,0.669,,190522,,,A*7A
$GPRMC,070246.00,A,4930.08193,N,00556.85583,E,1.323,26.36,190522,,,A*5E
$GPGGA,070246.00,4930.08193,N,00556.85583,E,1,08,1.22,379.4,M,46.8,M,,*59
$GPGSA,A,3,25,19,24,12,32,22,02,06,,,,,2.29,1.22,1.94*09
$GPRMC,070247.00,A,4930.08459,N,00556.85708,E,1.818,30.33,190522,,,A*5C
$GPGSV,3,1,12,02,29,103,20,03,02,355,,06,23,056,33,11,22,102,25*73
$GPGSV,3,2,12,12,65,063,37,19,08,039,19,22,33,302,27,24,37,140,22*7B
$GPGSV,3,3,12,25,65,276,23,29,27,199,31,31,13,305,24,32,40,274,31*77
$GPRMC,070248.00,A,4930.08937,N,00556.85953,E,2.589,32.83,190522,,,A*59
$GPRMC,070249.00,A,4930.09308,N,00556.86125,E,2.593,34.06,190522,,,A*55
$GPRMC,070250.00,A,4930.09618,N,00556.86272,E,2.439,35.38,190522,,,A*55
$GPRMC,070251.00,A,4930.09891,N,00556.86427,E,2.585,40.16,190522,,,A*55
$GPGGA,070251.00,4930.09891,N,00556.86427,E,1,08,1.22,372.7,M,46.8,M,,*51
$GPGSA,A,3,25,19,24,12,32,22,02,06,,,,,2.29,1.22,1.93*0E
$GPRMC,070252.00,A,4930.10093,N,00556.86448,E,2.619,31.11,190522,,,A*5A
$GPGSV,3,1,12,02,29,103,22,03,02,355,,06,23,056,34,11,23,102,29*7B
$GPGSV,3,2,12,12,64,063,27,19,08,039,22,22,33,302,35,24,37,140,23*71
$GPGSV,3,3,12,25,65,276,23,29,27,199,28,31,13,305,25,32,40,274,33*7C
$GPRMC,070253.00,A,4930.10194,N,00556.86508,E,2.302,31.80,190522,,,A*5F
$GPRMC,070254.00,A,4930.10326,N,00556.86586,E,2.452,25.96,190522,,,A*55
$GPRMC,070255.00,A,4930.10418,N,00556.86670,E,2.233,24.08,190522,,,A*53
$GPRMC,070256.00,A,4930.10507,N,00556.86726,E,2.051,17.95,190522,,,A*5F
$GPGGA,070256.00,4930.10507,N,00556.86726,E,1,08,1.22,371.1,M,46.8,M,,*5B
$GPGSA,A,3,25,19,24,12,32,22,02,06,,,,,2.29,1.22,1.93*0E
$GPRMC,070257.00,A,4930.10615,N,00556.86823,E,1.954,16.81,190522,,,A*5F
$GPGSV,3,1,12,02,29,103,30,03,02,355,,06,23,056,30,11,23,102,24*71
$GPGSV,3,2,12,12,64,063,32,19,08,039,29,22,33,302,24,24,37,140,25*78
$GPGSV,3,3,12,25,65,276,25,29,27,199,36,31,13,305,29,32,40,274,26*7D
$GPRMC,070258.00,A,4930.10708,N,00556.86930,E,1.975,14.74,190522,,,A*55
$GPRMC,070259.00,A,4930.10787,N,00556.86991,E,1.956,9.05,190522,,,A*63
$GPRMC,070300.00,A,4930.10863,N,00556.87055,E,2.119,3.71,190522,,,A*62
$GPRMC,070301.00,A,4930.10928,N,00556.87155,E,2.206,9.06,190522,,,A*6B
$GPGGA,070301.00,4930.10928,N,00556.87155,E,1,08,1.22,366.6,M,46.8,M,,*5B
$GPGSA,A,3,25,19,24,12,32,22,02,06,,,,,2.28,1.22,1.93*0F
$GPRMC,070302.00,A,4930.10959,N,00556.87227,E,2.325,8.14,190522,,,A*6A
$GPGSV,3,1,12,02,29,103,26,03,02,355,,06,23,056,26,11,23,102,21*74
$GPGSV,3,2,12,12,64,063,32,19,07,039,30,22,33,301,27,24,37,140,30*7B
$GPGSV,3,3,12,25,65,276,22,29,27,199,30,31,13,305,27,32,40,274,25*71
$GPRMC,070303.00,A,4930.10971,N,00556.87241,E,2.001,357.81,190522,,,A*61
$GPRMC,070304.00,A,4930.10974,N,00556.87238,E,1.581,,190522,,,A*75
$GPRMC,070305.00,A,4930.11016,N,00556.87359,E,2.086,356.37,190522,,,A*65
$GPRMC,070306.00,A,4930.11024,N,00556.87437,E,1.642,,190522,,,A*7F
$GPGGA,070306.00,4930.11024,N,00556.87437,E,1,08,1.22,364.7,M,46.8,M,,*5A
$GPGSA,A,3,25,19,24,12,32,22,02,06,,,,,2.28,1.22,1.93*0F
$GPRMC,070307.00,A,4930.11072,N,00556.87531,E,1.641,,190522,,,A*79
$GPGSV,3,1,12,02,29,103,27,03,02,354,16,06,23,056,24,11,23,102,22*72
$GPGSV,3,2,12,12,64,063,30,19,07,039,25,22,33,301,25,24,37,140,27*79
$GPGSV,3,3,12,25,65,276,22,29,27,199,34,31,13,305,29,32,40,274,27*79
$GPRMC,070308.00,A,4930.11112,N,00556.87588,E,2.087,0.01,190522,,,A*63
$GPRMC,070309.00,A,4930.11135,N,00556.87648,E,1.832,357.20,190522,,,A*6F
$GPRMC,070310.00,A,4930.11163,N,00556.87699,E,2.173,357.29,190522,,,A*6E
$GPRMC,070311.00,A,4930.11192,N,00556.87765,E,1.766,354.39,190522,,,A*60
$GPGGA,070311.00,4930.11192,N,00556.87765,E,1,08,1.22,363.4,M,46.8,M,,*50
$GPGSA,A,3,25,19,24,12,32,22,02,06,,,,,2.28,1.22,1.93*0F
$GPRMC,070312.00,A,4930.11257,N,00556.87818,E,2.395,354.88,190522,,,A*6D
$GPGSV,3,1,12,02,29,103,26,03,02,354,13,06,23,056,33,11,23,102,25*77
$GPGSV,3,2,12,12,64,063,25,19,07,039,23,22,33,301,26,24,37,140,30*7E
$GPGSV,3,3,12,25,65,276,29,29,27,199,27,31,13,305,25,32,40,274,22*79
$GPRMC,070313.00,A,4930.11295,N,00556.87897,E,1.954,0.53,190522,,,A*65
$GPRMC,070314.00,A,4930.11370,N,00556.87935,E,2.613,357.91,190522,,,A*61
$GPRMC,070315.00,A,4930.11394,N,00556.87996,E,2.116,0.95,190522,,,A*64
$GPRMC,070316.00,A,4930.11442,N,00556.88058,E,1.933,358.34,190522,,,A*66
$GPGGA,070316.00,4930.11442,N,00556.88058,E,1,08,1.22,361.7,M,46.8,M,,*58
$GPGSA,A,3,25,19,24,12,32,22,02,06,,,,,2.28,1.22,1.93*0F
$GPRMC,070317.00,A,4930.11546,N,00556.88124,E,2.829,3.33,190522,,,A*6B
$GPGSV,3,1,12,02,29,103,33,03,02,354,12,06,23,056,27,11,23,102,25*77
$GPGSV,3,2,12,12,64,063,23,19,07,039,26,22,33,301,26,24,37,140,28*74
$GPGSV,3,3,12,25,65,276,24,29,27,199,32,31,13,305,25,32,40,274,27*75
$GPRMC,070318.00,A,4930.11610,N,00556.88198,E,3.056,6.04,190522,,,A*63
$GPRMC,070319.00,A,4930.11665,N,00556.88249,E,2.835,11.66,190522,,,A*51
$GPRMC,070320.00,A,4930.11695,N,00556.88260,E,2.767,15.36,190522,,,A*56
$GPRMC,070321.00,A,4930.11737,N,00556.88240,E,2.118,15.87,190522,,,A*58
$GPGGA,070321.00,4930.11737,N,00556.88240,E,1,08,1.22,357.5,M,46.8,M,,*51
$GPGSA,A,3,25,19,24,12,32,22,02,06,,,,,2.28,1.22,1.93*0F
$GPRMC,070322.00,A,4930.11808,N,00556.88263,E,2.585,25.53,190522,,,A*53
$GPGSV,3,1,12,02,29,103,21,03,02,354,12,06,23,056,26,11,23,102,20*70
$GPGSV,3,2,12,12,64,063,22,19,07,039,30,22,33,301,27,24,37,140,28*73
$GPGSV,3,3,12,25,65,276,26,29,27,199,25,31,13,305,24,32,40,274,32*74
$GPRMC,070323.00,A,4930.11864,N,00556.88287,E,2.235,31.14,190522,,,A*58
$GPRMC,070324.00,A,4930.11947,N,00556.88296,E,2.673,31.85,190522,,,A*51
$GPRMC,070325.00,A,4930.11964,N,00556.88320,E,2.042,,190522,,,A*78
$GPRMC,070326.00,A,4930.12044,N,00556.88296,E,1.900,25.57,190522,,,A*58
$GPGGA,070326.00,4930.12044,N,00556.88296,E,1,08,1.22,353.8,M,46.8,M,,*54
$GPGSA,A,3,25,19,24,12,32,22,02,06,,,,,2.28,1.22,1.92*0E
$GPRMC,070327.00,A,4930.12103,N,00556.88285,E,1.694,,190522,,,A*70
$GPGSV,3,1,12,02,29,103,18,03,02,354,14,06,23,056,24,11,23,102,19*74
$GPGSV,3,2,12,12,64,063,22,19,07,039,24,22,33,301,25,24,37,140,23*7F
$GPGSV,3,3,12,25,65,276,24,29,27,199,32,31,13,305,26,32,40,274,27*76
$GPRMC,070328.00,A,4930.12158,N,00556.88263,E,1.375,,190522,,,A*73
$GPRMC,070329.00,A,4930.12269,N,00556.88287,E,1.797,2.27,190522,,,A*68
$GPRMC,070330.00,A,4930.12338,N,00556.88332,E,1.606,358.65,190522,,,A*69
$GPRMC,070331.00,A,4930.12391,N,00556.88365,E,1.206,,190522,,,A*7E
$GPGGA,070331.00,4930.12391,N,00556.88365,E,1,08,1.22,352.8,M,46.8,M,,*55
$GPGSA,A,3,25,19,24,12,32,22,02,06,,,,,2.28,1.22,1.92*0E
$GPRMC,070332.00,A,4930.12459,N,00556.88377,E,1.084,,190522,,,A*75
$GPGSV,3,1,12,02,29,103,22,03,02,354,14,06,23,056,28,11,23,102,21*7A
$GPGSV,3,2,12,12,64,063,33,19,07,039,26,22,33,301,30,24,37,140,22*78
$GPGSV,3,3,12,25,65,276,23,29,27,199,26,31,13,305,25,32,40,274,32*73
$GPRMC,070333.00,A,4930.12537,N,00556.88436,E,0.426,,190522,,,A*72
$GPRMC,070334.00,A,4930.12610,N,00556.88458,E,0.378,,190522,,,A*77
$GPRMC,070335.00,A,4930.12673,N,00556.88435,E,0.631,,190522,,,A*70
$GPRMC,070336.00,A,4930.12774,N,00556.88422,E,1.795,8.33,190522,,,A*6B
$GPGGA,070336.00,4930.12774,N,00556.88422,E,1,08,1.22,354.1,M,46.8,M,,*56
$GPGSA,A,3,25,19,24,12,32,22,02,06,,,,,2.27,1.22,1.92*01
$GPRMC,070337.00,A,4930.12800,N,00556.88384,E,1.128,5.98,190522,,,A*61
$GPGSV,3,1,12,02,29,103,26,03,02,354,15,06,23,056,24,11,23,101,22*73
$GPGSV,3,2,12,12,64,064,31,19,07,039,23,22,33,301,34,24,37,140,23*7D
$GPGSV,3,3,12,25,65,276,27,29,27,199,25,31,13,305,25,32,40,274,37*71
$GPRMC,070338.00,A,4930.12919,N,00556.88448,E,1.638,1.95,190522,,,A*6F
$GPRMC,070339.00,A,4930.13011,N,00556.88506,E,1.586,356.74,190522,,,A*6D
$GPRMC,070340.00,A,4930.13059,N,00556.88581,E,0.973,,190522,,,A*7A
$GPRMC,070341.00,A,4930.13109,N,00556.88652,E,0.144,,190522,,,A*7E
$GPGGA,070341.00,4930.13109,N,00556.88652,E,1,08,1.22,357.9,M,46.8,M,,*55
$GPGSA,A,3,25,19,24,12,32,22,02,06,,,,,2.27,1.22,1.92*01
$GPRMC,070342.00,A,4930.13206,N,00556.88720,E,0.757,,190522,,,A*71
$GPGSV,3,1,12,02,29,103,31,03,02,354,,06,23,056,35,11,23,101,32*70
$GPGSV,3,2,12,12,64,064,36,19,07,039,25,22,33,301,39,24,37,140,22*70
$GPGSV,3,3,12,25,65,276,26,29,27,199,25,31,13,305,26,32,40,274,37*73
$GPRMC,070343.00,A,4930.13208,N,00556.88807,E,0.184,,190522,,,A*7C
$GPRMC,070344.00,A,4930.13242,N,00556.88869,E,0.116,,190522,,,A*76
$GPRMC,070345.00,A,4930.13265,N,00556.88920,E,0.466,,190522,,,A*7C
$GPRMC,070346.00,A,4930.13361,N,00556.89021,E,0.906,,190522,,,A*78
$GPGGA,070346.00,4930.13361,N,00556.89021,E,1,08,1.23,359.4,M,46.8,M,,*5F
$GPGSA,A,3,25,19,24,12,32,22,02,06,,,,,2.48,1.23,2.15*05
$GPRMC,070347.00,A,4930.13483,N,00556.89146,E,1.156,,190522,,,A*7E
$GPGSV,3,1,12,02,29,103,32,03,02,354,,06,23,056,38,11,23,101,24*79
$GPGSV,3,2,12,12,64,064,41,19,07,039,27,22,33,301,33,24,36,141,26*7C
$GPGSV,3,3,12,25,65,276,25,29,27,199,27,31,13,305,27,32,40,274,36*72
$GPRMC,070348.00,A,4930.13619,N,00556.89251,E,1.478,12.67,190522,,,A*50
$GPRMC,070349.00,A,4930.13699,N,00556.89342,E,0.778,,190522,,,A*74
$GPRMC,070350.00,A,4930.13783,N,00556.89390,E,1.186,,190522,,,A*7F
$GPRMC,070351.00,A,4930.13865,N,00556.89465,E,1.259,,190522,,,A*75
$GPGGA,070351.00,4930.13865,N,00556.89465,E,1,08,1.21,359.5,M,46.8,M,,*51
$GPGSA,A,3,25,19,24,12,32,22,02,06,,,,,2.27,1.21,1.92*02
$GPRMC,070352.00,A,4930.13966,N,00556.89527,E,1.787,28.79,190522,,,A*5F
$GPGSV,3,1,12,02,29,103,25,03,02,354,,06,23,056,34,11,23,101,25*72
$GPGSV,3,2,12,12,64,064,25,19,07,039,27,22,33,301,31,24,36,141,26*7C
$GPGSV,3,3,12,25,66,277,25,29,28,199,28,31,13,305,25,32,40,274,28*7D
$GPRMC,070353.00,A,4930.14048,N,00556.89569,E,1.370,23.34,190522,,,A*58
$GPRMC,070354.00,A,4930.14160,N,00556.89709,E,2.025,42.65,190522,,,A*53
$GPRMC,070355.00,A,4930.14236,N,00556.89793,E,1.519,,190522,,,A*73
$GPRMC,070356.00,A,4930.14316,N,00556.89866,E,0.948,,190522,,,A*7F
$GPGGA,070356.00,4930.14316,N,00556.89866,E,1,08,1.23,358.1,M,46.8,M,,*56
$GPGSA,A,3,25,19,24,12,32,22,02,06,,,,,2.48,1.23,2.15*05
$GPRMC,070357.00,A,4930.14445,N,00556.89921,E,1.552,42.87,190522,,,A*5C
$GPGSV,3,1,12,02,29,103,30,03,02,354,,06,23,056,34,11,23,101,24*77
$GPGSV,3,2,12,12,64,064,31,19,07,039,32,22,33,301,34,24,36,141,24*7A
$GPGSV,3,3,12,25,66,277,23,29,28,199,26,31,14,305,25,32,40,273,31*7D
$GPRMC,070358.00,A,4930.14512,N,00556.89965,E,0.905,,190522,,,A*78
$GPRMC,070359.00,A,4930.14623,N,00556.90016,E,1.309,,190522,,,A*7A
$GPRMC,070400.00,A,4930.14748,N,00556.90001,E,2.101,7.52,190522,,,A*6C
$GPRMC,070401.00,A,4930.14814,N,00556.90040,E,1.436,7.89,190522,,,A*6A
$GPGGA,070401.00,4930.14814,N,00556.90040,E,1,08,1.21,354.8,M,46.8,M,,*59
$GPGSA,A,3,25,19,24,12,32,22,02,06,,,,,2.27,1.21,1.91*01
$GPRMC,070402.00,A,4930.14940,N,00556.90012,E,1.279,,190522,,,A*7B
$GPGSV,3,1,12,02,29,103,29,03,02,354,17,06,23,056,32,11,23,101,30*7A
$GPGSV,3,2,12,12,64,064,32,19,07,039,26,22,33,301,39,24,36,141,24*71
$GPGSV,3,3,12,25,66,277,31,29,28,199,24,31,14,305,25,32,40,273,35*78
$GPRMC,070403.00,A,4930.14989,N,00556.89968,E,0.670,,190522,,,A*7F
$GPRMC,070404.00,A,4930.15129,N,00556.90018,E,2.109,20.80,190522,,,A*52
$GPRMC,070405.00,A,4930.15247,N,00556.90025,E,1.902,19.59,190522,,,A*58
$GPRMC,070406.00,A,4930.15347,N,00556.90009,E,1.296,16.13,190522,,,A*53
$GPGGA,070406.00,4930.15347,N,00556.90009,E,1,08,1.21,351.8,M,46.8,M,,*5A
$GPGSA,A,3,25,19,24,12,32,22,02,06,,,,,2.26,1.21,1.91*00
$GPRMC,070407.00,A,4930.15427,N,00556.89993,E,0.993,,190522,,,A*75
$GPGSV,3,1,12,02,29,103,33,03,02,354,,06,23,056,29,11,23,101,40*7A
$GPGSV,3,2,12,12,64,064,32,19,07,039,26,22,33,301,34,24,36,141,26*7E
$GPGSV,3,3,12,25,66,277,31,29,28,199,27,31,14,305,26,32,40,273,26*7A
$GPRMC,070408.00,A,4930.15559,N,00556.89964,E,1.946,355.18,190522,,,A*67
$GPRMC,070409.00,A,4930.15636,N,00556.89908,E,2.029,346.64,190522,,,A*6C
$GPRMC,070410.00,A,4930.15724,N,00556.89846,E,2.117,336.12,190522,,,A*67
$GPRMC,070411.00,A,4930.15785,N,00556.89796,E,1.600,336.88,190522,,,A*6E
$GPGGA,070411.00,4930.15785,N,00556.89796,E,1,08,1.21,352.0,M,46.8,M,,*54
$GPGSA,A,3,25,19,24,12,32,22,02,06,,,,,2.26,1.21,1.91*00
$GPRMC,070412.00,A,4930.15802,N,00556.89785,E,0.836,,190522,,,A*7D
$GPGSV,3,1,12,02,29,103,28,03,02,354,,06,23,056,27,11,23,101,29*71
$GPGSV,3,2,12,12,64,064,28,19,07,039,21,22,33,301,25,24,36,141,22*76
$GPGSV,3,3,12,25,66,277,26,29,28,199,37,31,14,305,24,32,40,273,31*79
$GPRMC,070413.00,A,4930.15823,N,00556.89705,E,0.613,,190522,,,A*7E
$GPRMC,070414.00,A,4930.15863,N,00556.89647,E,1.108,,190522,,,A*76
$GPRMC,070415.00,A,4930.15847,N,00556.89535,E,1.339,,190522,,,A*77
$GPRMC,070416.00,A,4930.15813,N,00556.89420,E,1.268,,190522,,,A*75
$GPGGA,070416.00,4930.15813,N,00556.89420,E,1,08,1.29,349.3,M,46.8,M,,*5C
$GPGSA,A,3,25,19,24,12,32,22,02,06,,,,,2.32,1.29,1.93*0F
$GPRMC,070417.00,A,4930.15773,N,00556.89319,E,0.746,,190522,,,A*78
$GPGSV,3,1,12,02,29,103,35,03,02,354,06,06,23,055,27,11,23,101,29*78
$GPGSV,3,2,12,12,64,064,26,19,07,039,18,22,33,301,26,24,36,141,23*70
$GPGSV,3,3,12,25,66,277,33,29,28,199,38,31,14,305,24,32,40,273,39*7A
$GPRMC,070418.00,A,4930.15769,N,00556.89198,E,1.237,,190522,,,A*75
$GPRMC,070419.00,A,4930.15745,N,00556.89081,E,1.531,,190522,,,A*72
$GPRMC,070420.00,A,4930.15685,N,00556.88944,E,2.223,293.07,190522,,,A*62
$GPRMC,070421.00,A,4930.15703,N,00556.88756,E,1.972,,190522,,,A*7C
$GPGGA,070421.00,4930.15703,N,00556.88756,E,1,08,1.29,346.1,M,46.8,M,,*58
$GPGSA,A,3,25,19,24,12,32,22,02,06,,,,,2.59,1.29,2.25*0C
$GPRMC,070422.00,A,4930.15713,N,00556.88617,E,1.383,,190522,,,A*7E
$GPGSV,3,1,12,02,29,103,29,03,02,354,07,06,23,055,29,11,23,101,26*75
$GPGSV,3,2,12,12,64,064,29,19,07,039,19,22,33,301,26,24,36,141,25*78
$GPGSV,3,3,12,25,66,277,35,29,28,199,27,31,14,305,31,32,40,273,44*7C
$GPRMC,070423.00,A,4930.15656,N,00556.88481,E,1.372,,190522,,,A*7C
$GPRMC,070424.00,A,4930.15653,N,00556.88308,E,1.301,,190522,,,A*7C
$GPRMC,070425.00,A,4930.15708,N,00556.88142,E,1.260,,190522,,,A*78
$GPRMC,070426.00,A,4930.15727,N,00556.87974,E,1.252,,190522,,,A*75
$GPGGA,070426.00,4930.15727,N,00556.87974,E,1,08,1.21,343.9,M,46.8,M,,*5D
$GPGSA,A,3,25,19,24,12,32,22,02,06,,,,,2.26,1.21,1.91*00
$GPRMC,070427.00,A,4930.15769,N,00556.87834,E,1.706,,190522,,,A*7F
$GPGSV,3,1,12,02,29,103,22,03,02,354,07,06,23,055,30,11,23,101,30*71
$GPGSV,3,2,12,12,64,064,23,19,07,039,19,22,33,301,21,24,36,141,26*76
$GPGSV,3,3,12,25,66,277,35,29,28,199,32,31,14,305,32,32,40,273,44*7B
$GPRMC,070428.00,A,4930.15828,N,00556.87719,E,1.703,306.44,190522,,,A*64
$GPRMC,070429.00,A,4930.15873,N,00556.87586,E,2.092,306.41,190522,,,A*66
$GPRMC,070430.00,A,4930.15866,N,00556.87461,E,2.079,,190522,,,A*79
$GPRMC,070431.00,A,4930.15798,N,00556.87368,E,1.344,,190522,,,A*76
$GPGGA,070431.00,4930.15798,N,00556.87368,E,1,08,1.29,342.2,M,46.8,M,,*5A
$GPGSA,A,3,25,19,24,12,32,22,02,06,,,,,2.31,1.29,1.92*0D
$GPRMC,070432.00,A,4930.15785,N,00556.87244,E,1.056,,190522,,,A*76
$GPGSV,3,1,12,02,29,103,35,03,02,354,07,06,23,055,26,11,23,101,37*77
$GPGSV,3,2,12,12,64,064,31,19,07,039,19,22,33,301,21,24,36,141,31*73
$GPGSV,3,3,12,25,66,277,37,29,28,199,28,31,14,305,29,32,40,273,43*7F
$GPRMC,070433.00,A,4930.15841,N,00556.87115,E,1.157,,190522,,,A*77
$GPRMC,070434.00,A,4930.15835,N,00556.86960,E,1.815,262.08,190522,,,A*67
$GPRMC,070435.00,A,4930.15838,N,00556.86857,E,1.516,,190522,,,A*70
$GPRMC,070436.00,A,4930.15856,N,00556.86703,E,1.973,,190522,,,A*7A
$GPGGA,070436.00,4930.15856,N,00556.86703,E,1,07,1.36,340.1,M,46.8,M,,*58
$GPGSA,A,3,25,19,24,12,32,22,02,,,,,,2.36,1.36,1.92*02
$GPRMC,070437.00,A,4930.15859,N,00556.86589,E,1.564,,190522,,,A*7E
$GPGSV,3,1,12,02,29,103,37,03,02,354,,06,23,055,,11,23,101,39*78
$GPGSV,3,2,12,12,64,064,30,19,07,039,18,22,33,301,22,24,36,141,24*74
$GPGSV,3,3,12,25,66,277,33,29,28,200,26,31,14,305,26,32,40,273,45*7F
$GPRMC,070438.00,A,4930.15891,N,00556.86480,E,1.210,,190522,,,A*79
$GPRMC,070439.00,A,4930.15994,N,00556.86323,E,1.498,,190522,,,A*74
$GPRMC,070440.00,A,4930.15903,N,00556.86207,E,2.288,245.64,190522,,,A*68
$GPRMC,070441.00,A,4930.15841,N,00556.86083,E,2.664,225.29,190522,,,A*69
$GPGGA,070441.00,4930.15841,N,00556.86083,E,1,07,1.30,341.6,M,46.8,M,,*51
$GPGSA,A,3,25,19,24,12,32,22,02,,,,,,2.31,1.30,1.90*01
$GPRMC,070442.00,A,4930.15834,N,00556.85945,E,2.502,223.65,190522,,,A*65
$GPGSV,4,1,13,02,29,103,40,03,02,354,,06,23,055,,11,23,101,40*70
$GPGSV,4,2,13,12,64,064,27,19,07,039,15,22,33,301,25,24,36,141,30*7B
$GPGSV,4,3,13,25,66,277,36,29,28,200,32,31,14,305,30,32,40,273,37*7B
$GPGSV,4,4,13,39,30,156,27*45
$GPRMC,070443.00,A,4930.15775,N,00556.85777,E,2.614,224.19,190522,,,A*69
$GPRMC,070444.00,A,4930.15782,N,00556.85629,E,2.552,223.78,190522,,,A*6D
$GPRMC,070445.00,A,4930.15789,N,00556.85491,E,2.057,,190522,,,A*74
$GPRMC,070446.00,A,4930.15898,N,00556.85332,E,1.976,,190522,,,A*7F
$GPGGA,070446.00,4930.15898,N,00556.85332,E,1,07,1.81,342.4,M,46.8,M,,*53
$GPGSA,A,3,25,19,24,12,32,22,02,,,,,,3.15,1.81,2.59*0A
$GPRMC,070447.00,A,4930.15780,N,00556.85184,E,2.298,227.68,190522,,,A*68
$GPGSV,4,1,13,02,29,103,34,03,02,354,11,06,23,055,,11,23,101,34*70
$GPGSV,4,2,13,12,64,064,25,19,07,039,23,22,33,301,35,24,36,141,27*7B
$GPGSV,4,3,13,25,66,277,31,29,28,200,36,31,14,305,24,32,40,273,43*7E
$GPGSV,4,4,13,39,30,156,33*40
$GPRMC,070448.00,A,4930.15976,N,00556.85211,E,0.980,,190522,,,A*78
$GPRMC,070449.00,A,4930.16028,N,00556.85097,E,1.192,,190522,,,A*7E
$GPRMC,070450.00,A,4930.16095,N,00556.84939,E,1.697,,190522,,,A*7E
$GPRMC,070451.00,A,4930.16254,N,00556.84786,E,1.860,,190522,,,A*7C
$GPGGA,070451.00,4930.16254,N,00556.84786,E,1,07,1.80,345.6,M,46.8,M,,*52
$GPGSA,A,3,25,19,24,12,32,22,02,,,,,,3.15,1.80,2.59*0B
$GPRMC,070452.00,A,4930.16387,N,00556.84620,E,1.535,,190522,,,A*70
$GPGSV,4,1,13,02,29,103,37,03,02,354,15,06,23,055,22,11,23,101,32*71
$GPGSV,4,2,13,12,64,064,24,19,07,039,21,22,33,301,23,24,36,141,35*7C
$GPGSV,4,3,13,25,66,277,26,29,28,200,39,31,14,305,20,32,40,273,36*71
$GPGSV,4,4,13,39,30,156,36*45
$GPRMC,070453.00,A,4930.16662,N,00556.84400,E,1.716,,190522,,,A*7C
$GPRMC,070454.00,A,4930.16881,N,00556.84291,E,0.872,,190522,,,A*7A
$GPRMC,070455.00,A,4930.17288,N,00556.84146,E,1.327,,190522,,,A*7A
$GPRMC,070456.00,A,4930.17270,N,00556.84050,E,1.338,,190522,,,A*76
$GPGGA,070456.00,4930.17270,N,00556.84050,E,1,08,1.28,354.0,M,46.8,M,,*55
$GPGSA,A,3,25,19,24,12,32,22,02,06,,,,,2.59,1.28,2.24*0C
$GPRMC,070457.00,A,4930.17212,N,00556.83999,E,1.669,,190522,,,A*79
$GPGSV,4,1,13,02,29,102,34,03,02,354,15,06,23,055,37,11,23,101,35*70
$GPGSV,4,2,13,12,64,064,23,19,07,039,18,22,33,301,20,24,36,141,22*74
$GPGSV,4,3,13,25,66,277,28,29,28,200,39,31,14,305,21,32,40,273,31*79
$GPGSV,4,4,13,39,30,156,28*4A
$GPRMC,070458.00,A,4930.17231,N,00556.83982,E,1.379,153.26,190522,,,A*64
$GPRMC,070459.00,A,4930.17302,N,00556.83970,E,1.493,93.66,190522,,,A*53
$GPRMC,070500.00,A,4930.17399,N,00556.83916,E,1.360,,190522,,,A*73
$GPRMC,070501.00,A,4930.17441,N,00556.83912,E,1.356,,190522,,,A*71
$GPGGA,070501.00,4930.17441,N,00556.83912,E,1,08,1.28,356.4,M,46.8,M,,*5C
$GPGSA,A,3,25,19,24,12,32,22,02,06,,,,,2.59,1.28,2.24*0C
$GPRMC,070502.00,A,4930.17744,N,00556.83848,E,1.606,,190522,,,A*7A
$GPGSV,3,1,12,02,29,102,29,03,02,354,11,06,23,055,39,11,23,101,23*77
$GPGSV,3,2,12,12,64,064,22,19,07,039,23,22,33,301,20,24,36,141,39*71
$GPGSV,3,3,12,25,66,277,19,29,28,200,26,31,14,305,21,32,40,273,31*73
$GPRMC,070503.00,A,4930.17766,N,00556.83856,E,1.274,,190522,,,A*75
$GPRMC,070504.00,A,4930.17820,N,00556.83887,E,1.289,,190522,,,A*71
$GPRMC,070505.00,A,4930.17918,N,00556.83920,E,1.570,,190522,,,A*77
$GPRMC,070506.00,A,4930.18002,N,00556.83942,E,1.654,,190522,,,A*78
$GPGGA,070506.00,4930.18002,N,00556.83942,E,1,07,1.41,356.7,M,46.8,M,,*51
$GPGSA,A,3,25,19,24,12,22,02,06,,,,,,2.45,1.41,2.00*09
$GPRMC,070507.00,A,4930.18068,N,00556.83976,E,1.858,,190522,,,A*70
$GPGSV,3,1,12,02,29,102,29,03,02,354,19,06,23,055,40,11,23,101,32*71
$GPGSV,3,2,12,12,63,064,33,19,07,039,27,22,33,301,18,24,36,141,27*76
$GPGSV,3,3,12,25,66,277,13,29,28,200,26,31,14,305,25,32,40,273,*7F
$GPRMC,070508.00,A,4930.18155,N,00556.84058,E,2.390,,190522,,,A*7E
$GPRMC,070509.00,A,4930.18262,N,00556.84078,E,2.289,,190522,,,A*73
$GPRMC,070510.00,A,4930.18364,N,00556.84108,E,2.272,,190522,,,A*7E
$GPRMC,070511.00,A,4930.18452,N,00556.84156,E,2.703,69.93,190522,,,A*5E
$GPGGA,070511.00,4930.18452,N,00556.84156,E,1,08,1.41,348.6,M,46.8,M,,*5D
$GPGSA,A,3,25,19,24,12,32,22,02,06,,,,,2.44,1.41,2.00*09
$GPRMC,070512.00,A,4930.18581,N,00556.84211,E,2.787,49.39,190522,,,A*5C
$GPGSV,3,1,12,02,29,102,35,03,02,354,21,06,23,055,36,11,23,101,39*7D
$GPGSV,3,2,12,12,63,064,29,19,06,039,30,22,33,301,18,24,36,141,24*79
$GPGSV,3,3,12,25,66,277,16,29,28,200,23,31,14,305,31,32,40,273,21*79
$GPRMC,070513.00,A,4930.18732,N,00556.84181,E,2.863,29.84,190522,,,A*58
$GPRMC,070514.00,A,4930.18880,N,00556.84162,E,2.807,22.52,190522,,,A*56
$GPRMC,070515.00,A,4930.18994,N,00556.84244,E,3.118,22.09,190522,,,A*5C
$GPRMC,070516.00,A,4930.19148,N,00556.84372,E,3.323,23.75,190522,,,A*53
$GPGGA,070516.00,4930.19148,N,00556.84372,E,1,08,1.34,346.7,M,46.8,M,,*5C
$GPGSA,A,3,25,19,24,12,32,22,02,06,,,,,2.39,1.34,1.98*03
$GPRMC,070517.00,A,4930.19277,N,00556.84393,E,3.030,20.06,190522,,,A*54
$GPGSV,3,1,12,02,29,102,31,03,02,354,21,06,23,055,27,11,23,101,35*75
$GPGSV,3,2,12,12,63,064,29,19,06,039,26,22,34,300,18,24,36,141,26*7A
$GPGSV,3,3,12,25,66,278,17,29,28,200,20,31,14,305,32,32,40,273,21*77
$GPRMC,070518.00,A,4930.19327,N,00556.84478,E,2.165,,190522,,,A*77
$GPRMC,070519.00,A,4930.19443,N,00556.84483,E,1.739,,190522,,,A*7B
$GPRMC,070520.00,A,4930.19542,N,00556.84571,E,1.540,,190522,,,A*71
$GPRMC,070521.00,A,4930.19688,N,00556.84551,E,1.804,,190522,,,A*7A
$GPGGA,070521.00,4930.19688,N,00556.84551,E,1,08,1.34,350.4,M,46.8,M,,*50
$GPGSA,A,3,25,19,24,12,32,22,02,06,,,,,2.39,1.34,1.98*03
$GPRMC,070522.00,A,4930.19894,N,00556.84580,E,1.917,,190522,,,A*75
$GPGSV,3,1,12,02,29,102,34,03,02,354,23,06,23,055,26,11,23,101,35*73
$GPGSV,3,2,12,12,63,064,29,19,06,039,32,22,34,300,18,24,36,141,27*7E
$GPGSV,3,3,12,25,66,278,21,29,28,200,24,31,14,305,28,32,40,273,25*79
$GPRMC,070523.00,A,4930.20041,N,00556.84630,E,2.342,15.76,190522,,,A*54
$GPRMC,070524.00,A,4930.20146,N,00556.84734,E,1.663,,190522,,,A*7E
$GPRMC,070525.00,A,4930.20236,N,00556.84834,E,1.857,,190522,,,A*7D
$GPRMC,070526.00,A,4930.20328,N,00556.84858,E,1.994,,190522,,,A*74
$GPGGA,070526.00,4930.20328,N,00556.84858,E,1,08,1.34,355.2,M,46.8,M,,*55
$GPGSA,A,3,25,19,24,12,32,22,02,06,,,,,2.39,1.34,1.98*03
$GPRMC,070527.00,A,4930.20414,N,00556.85069,E,2.060,,190522,,,A*77
$GPGSV,3,1,12,02,29,102,28,03,02,354,23,06,23,055,31,11,23,101,37*7A
$GPGSV,3,2,12,12,63,064,35,19,06,039,20,22,34,300,21,24,36,141,27*7A
$GPGSV,3,3,12,25,66,278,20,29,28,200,23,31,14,305,35,32,40,273,21*77
$GPRMC,070528.00,A,4930.20508,N,00556.85178,E,1.570,,190522,,,A*72
$GPRMC,070529.00,A,4930.20554,N,00556.85338,E,1.362,,190522,,,A*79
$GPRMC,070530.00,A,4930.20626,N,00556.85418,E,1.197,,190522,,,A*7A
$GPRMC,070531.00,A,4930.20719,N,00556.85522,E,1.372,,190522,,,A*77
$GPGGA,070531.00,4930.20719,N,00556.85522,E,1,08,1.20,363.2,M,46.8,M,,*54
$GPGSA,A,3,25,19,24,12,32,22,02,06,,,,,2.24,1.20,1.88*0B
$GPRMC,070532.00,A,4930.20785,N,00556.85614,E,1.284,,190522,,,A*7F
$GPGSV,3,1,12,02,29,102,35,03,02,354,28,06,23,055,33,11,23,101,37*7F
$GPGSV,3,2,12,12,63,064,33,19,06,039,24,22,34,300,30,24,36,141,29*76
$GPGSV,3,3,12,25,66,278,17,29,28,200,20,31,14,305,30,32,40,273,25*71
$GPRMC,070533.00,A,4930.20891,N,00556.84975,E,1.602,,190522,,,A*77
$GPRMC,070534.00,A,4930.21010,N,00556.84508,E,1.806,,190522,,,A*7C
$GPRMC,070535.00,A,4930.21124,N,00556.84272,E,2.454,338.53,190522,,,A*69
$GPRMC,070536.00,A,4930.21246,N,00556.83971,E,2.408,335.26,190522,,,A*64
$GPGGA,070536.00,4930.21246,N,00556.83971,E,1,08,1.20,355.6,M,46.8,M,,*50
$GPGSA,A,3,25,19,24,12,32,22,02,06,,,,,2.23,1.20,1.88*0C
$GPRMC,070537.00,A,4930.21397,N,00556.83691,E,3.195,332.44,190522,,,A*6A
$GPGSV,3,1,12,02,30,102,32,03,02,354,27,06,23,055,23,11,23,101,35*7C
$GPGSV,3,2,12,12,63,064,29,19,06,039,26,22,34,300,39,24,36,141,26*79
$GPGSV,3,3,12,25,66,278,21,29,28,200,21,31,14,305,40,32,40,273,28*7F
$GPRMC,070538.00,A,4930.21526,N,00556.83501,E,3.292,333.81,190522,,,A*6F
$GPRMC,070539.00,A,4930.21578,N,00556.83236,E,3.386,337.67,190522,,,A*6E
$GPRMC,070540.00,A,4930.21622,N,00556.83058,E,3.097,335.68,190522,,,A*68
$GPRMC,070541.00,A,4930.21687,N,00556.82861,E,3.617,334.58,190522,,,A*69
$GPGGA,070541.00,4930.21687,N,00556.82861,E,1,08,1.20,350.1,M,46.8,M,,*5A
$GPGSA,A,3,25,19,24,12,32,22,02,06,,,,,2.23,1.20,1.88*0C
$GPRMC,070542.00,A,4930.21724,N,00556.82702,E,2.203,335.06,190522,,,A*62
$GPGSV,3,1,12,02,30,102,35,03,02,353,25,06,23,055,20,11,23,101,37*7F
$GPGSV,3,2,12,12,63,064,32,19,06,039,21,22,34,300,37,24,36,141,31*7C
$GPGSV,3,3,12,25,66,278,31,29,28,200,23,31,14,305,30,32,40,273,38*7A
$GPRMC,070543.00,A,4930.21809,N,00556.82623,E,2.366,344.75,190522,,,A*61
$GPRMC,070544.00,A,4930.21881,N,00556.82503,E,2.561,345.76,190522,,,A*64
$GPRMC,070545.00,A,4930.21968,N,00556.82420,E,2.483,345.03,190522,,,A*6C
$GPRMC,070546.00,A,4930.21993,N,00556.82342,E,1.624,342.02,190522,,,A*62
$GPGGA,070546.00,4930.21993,N,00556.82342,E,1,08,1.20,347.6,M,46.8,M,,*5C
$GPGSA,A,3,25,19,24,12,32,22,02,06,,,,,2.23,1.20,1.88*0C
$GPRMC,070547.00,A,4930.22025,N,00556.82249,E,1.308,341.00,190522,,,A*64
$GPGSV,3,1,12,02,30,102,32,03,02,353,23,06,23,055,21,11,23,100,25*7D
$GPGSV,3,2,12,12,63,065,24,19,06,039,25,22,34,300,39,24,36,141,27*77
$GPGSV,3,3,12,25,66,278,30,29,28,200,21,31,14,305,31,32,40,273,35*75
$GPRMC,070548.00,A,4930.22053,N,00556.82205,E,0.806,,190522,,,A*7E
$GPRMC,070549.00,A,4930.22060,N,00556.82195,E,0.666,,190522,,,A*7D
$GPRMC,070550.00,A,4930.22047,N,00556.82224,E,0.442,,190522,,,A*7D
$GPRMC,070551.00,A,4930.22060,N,00556.82319,E,1.327,,190522,,,A*73
$GPGGA,070551.00,4930.22060,N,00556.82319,E,1,08,1.29,348.9,M,46.8,M,,*5B
$GPGSA,A,3,25,19,24,12,32,22,02,06,,,,,2.28,1.29,1.88*0E
$GPRMC,070552.00,A,4930.22061,N,00556.82378,E,0.991,,190522,,,A*70
$GPGSV,3,1,12,02,30,102,27,03,02,353,21,06,23,055,22,11,23,100,23*7E
$GPGSV,3,2,12,12,63,065,36,19,06,039,31,22,34,300,32,24,36,141,27*7A
$GPGSV,3,3,12,25,66,278,31,29,28,200,21,31,14,305,27,32,40,273,33*75
$GPRMC,070553.00,A,4930.22124,N,00556.82423,E,0.709,,190522,,,A*77
$GPRMC,070554.00,A,4930.22136,N,00556.82436,E,0.632,,190522,,,A*7E
$GPRMC,070555.00,A,4930.22139,N,00556.82437,E,0.252,,190522,,,A*73
$GPRMC,070556.00,A,4930.22174,N,00556.82462,E,0.628,,190522,,,A*70
$GPGGA,070556.00,4930.22174,N,00556.82462,E,1,08,1.20,347.1,M,46.8,M,,*5D
$GPGSA,A,3,25,19,24,12,32,22,02,06,,,,,2.23,1.20,1.88*0C
$GPRMC,070557.00,A,4930.22304,N,00556.82506,E,2.026,355.54,190522,,,A*61
$GPGSV,3,1,12,02,30,102,26,03,02,353,22,06,23,055,21,11,23,100,24*78
$GPGSV,3,2,12,12,63,065,33,19,06,039,31,22,34,300,24,24,36,141,27*78
$GPGSV,3,3,12,25,66,278,20,29,28,200,20,31,14,305,33,32,40,273,25*76
$GPRMC,070558.00,A,4930.22388,N,00556.82522,E,2.225,357.96,190522,,,A*61
$GPRMC,070559.00,A,4930.22447,N,00556.82598,E,1.852,6.14,190522,,,A*61
$GPRMC,070600.00,A,4930.22565,N,00556.82692,E,2.694,15.67,190522,,,A*57
$GPRMC,070601.00,A,4930.22662,N,00556.82732,E,2.506,17.38,190522,,,A*59
$GPGGA,070601.00,4930.22662,N,00556.82732,E,1,08,1.79,342.8,M,46.8,M,,*5A
$GPGSA,A,3,25,19,24,12,32,22,02,06,,,,,2.95,1.79,2.35*08
$GPRMC,070602.00,A,4930.22754,N,00556.82810,E,2.713,22.21,190522,,,A*59
$GPGSV,3,1,12,02,30,102,33,03,02,353,22,06,23,055,23,11,23,100,24*7E
$GPGSV,3,2,12,12,63,065,22,19,06,039,33,22,34,300,28,24,35,141,30*73
$GPGSV,3,3,12,25,66,278,21,29,28,200,20,31,14,305,33,32,40,273,25*77
$GPRMC,070603.00,A,4930.22850,N,00556.82910,E,2.532,25.90,190522,,,A*5E
$GPRMC,070604.00,A,4930.22929,N,00556.82885,E,2.198,,190522,,,A*7F
$GPRMC,070605.00,A,4930.23036,N,00556.82951,E,1.630,,190522,,,A*76
$GPRMC,070606.00,A,4930.23084,N,00556.83010,E,1.574,,190522,,,A*72
$GPGGA,070606.00,4930.23084,N,00556.83010,E,1,08,1.79,335.5,M,46.8,M,,*59
$GPGSA,A,3,25,19,24,12,32,22,02,06,,,,,2.95,1.79,2.34*09
$GPRMC,070607.00,A,4930.23135,N,00556.83090,E,1.347,,190522,,,A*76
$GPGSV,3,1,12,02,30,102,28,03,02,353,23,06,23,055,24,11,23,100,25*73
$GPGSV,3,2,12,12,63,065,25,19,06,039,35,22,34,300,25,24,35,141,28*76
$GPGSV,3,3,12,25,66,278,20,29,29,200,22,31,14,305,30,32,40,272,24*76
$GPRMC,070608.00,A,4930.23193,N,00556.83125,E,1.443,,190522,,,A*79
$GPRMC,070609.00,A,4930.23262,N,00556.83241,E,1.325,,190522,,,A*73
$GPRMC,070610.00,A,4930.23288,N,00556.83356,E,1.235,,190522,,,A*78
$GPRMC,070611.00,A,4930.23410,N,00556.83618,E,1.966,25.83,190522,,,A*5E
$GPGGA,070611.00,4930.23410,N,00556.83618,E,1,08,1.20,326.7,M,46.8,M,,*54
$GPGSA,A,3,25,19,24,12,32,22,02,06,,,,,2.22,1.20,1.87*02
$GPRMC,070612.00,A,4930.23494,N,00556.83780,E,2.374,23.72,190522,,,A*53
$GPGSV,3,1,12,02,30,102,27,03,02,353,20,06,23,055,37,11,23,100,26*7E
$GPGSV,3,2,12,12,63,065,22,19,06,039,28,22,34,300,27,24,35,141,27*70
$GPGSV,3,3,12,25,66,278,21,29,29,200,22,31,14,305,25,32,40,272,30*76
$GPRMC,070613.00,A,4930.23586,N,00556.83968,E,2.244,19.47,190522,,,A*55
$GPRMC,070614.00,A,4930.23705,N,00556.84189,E,2.226,16.83,190522,,,A*58
$GPRMC,070615.00,A,4930.23824,N,00556.84302,E,2.446,6.97,190522,,,A*60
$GPRMC,070616.00,A,4930.23933,N,00556.84408,E,2.588,0.06,190522,,,A*64
$GPGGA,070616.00,4930.23933,N,00556.84408,E,1,08,1.20,323.8,M,46.8,M,,*51
$GPGSA,A,3,25,19,24,12,32,22,02,06,,,,,2.22,1.20,1.87*02
$GPRMC,070617.00,A,4930.24019,N,00556.84503,E,1.874,1.40,190522,,,A*67
$GPGSV,3,1,12,02,30,102,39,03,02,353,21,06,23,055,26,11,23,100,25*73
$GPGSV,3,2,12,12,63,065,23,19,06,039,21,22,34,300,24,24,35,141,34*79
$GPGSV,3,3,12,25,66,278,23,29,29,200,22,31,14,305,25,32,40,272,26*73
$GPRMC,070618.00,A,4930.24123,N,00556.84636,E,2.011,5.57,190522,,,A*6F
$GPRMC,070619.00,A,4930.24099,N,00556.84719,E,0.611,,190522,,,A*7F
$GPRMC,070620.00,A,4930.24084,N,00556.84857,E,0.557,,190522,,,A*7D
$GPRMC,070621.00,A,4930.24073,N,00556.84945,E,0.348,,190522,,,A*7E
$GPGGA,070621.00,4930.24073,N,00556.84945,E,1,08,1.20,323.1,M,46.8,M,,*52
$GPGSA,A,3,25,19,24,12,32,22,02,06,,,,,2.22,1.20,1.87*02
$GPRMC,070622.00,A,4930.24056,N,00556.85000,E,0.358,,190522,,,A*72
