$GPRMC,132945.00,A,5228.77910,N,01325.34784,E,0.699,,300822,,,A*79
$GPRMC,132946.00,A,5228.77898,N,01325.34787,E,0.501,,300822,,,A*7A
$GPRMC,132947.00,A,5228.77872,N,01325.34798,E,0.451,,300822,,,A*75
$GPRMC,132948.00,A,5228.77871,N,01325.34834,E,1.081,,300822,,,A*78
$GPRMC,132949.00,A,5228.77868,N,01325.34844,E,0.568,,300822,,,A*75
$GPGGA,132949.00,5228.77868,N,01325.34844,E,1,07,1.03,48.5,M,42.2,M,,*61
$GPGSA,A,3,01,19,04,06,09,03,31,,,,,,1.66,1.03,1.30*00
$GPGSV,3,1,11,01,08,159,10,03,44,104,27,04,78,087,31,06,48,296,22*7C
$GPGSV,3,2,11,07,06,183,,09,60,229,36,11,18,316,17,17,09,229,*7D
$GPGSV,3,3,11,19,21,251,29,26,07,075,15,31,15,036,15*4D
$GPRMC,132950.00,A,5228.77791,N,01325.34900,E,1.016,,300822,,,A*78
$GPRMC,132951.00,A,5228.77766,N,01325.34905,E,0.787,,300822,,,A*7A
$GPRMC,132952.00,A,5228.77703,N,01325.34915,E,0.969,,300822,,,A*75
$GPRMC,132953.00,A,5228.77725,N,01325.34904,E,0.590,,300822,,,A*7A
$GPRMC,132954.00,A,5228.77694,N,01325.34880,E,0.640,,300822,,,A*75
$GPGGA,132954.00,5228.77694,N,01325.34880,E,1,07,1.03,48.3,M,42.2,M,,*6E
$GPGSA,A,3,01,19,04,06,09,03,31,,,,,,1.66,1.03,1.30*00
$GPGSV,3,1,11,01,08,159,13,03,44,104,34,04,78,087,27,06,48,296,28*70
$GPGSV,3,2,11,07,06,183,,09,60,229,40,11,18,316,18,17,09,229,*73
$GPGSV,3,3,11,19,21,251,29,26,08,075,12,31,15,036,16*46
$GPRMC,132955.00,A,5228.77693,N,01325.34885,E,0.389,,300822,,,A*76
$GPRMC,132956.00,A,5228.77650,N,01325.34899,E,0.756,,300822,,,A*71
$GPRMC,132957.00,A,5228.77646,N,01325.34906,E,0.552,,300822,,,A*76
$GPRMC,132958.00,A,5228.77615,N,01325.34916,E,0.540,,300822,,,A*7D
$GPRMC,132959.00,A,5228.77645,N,01325.34908,E,0.187,,300822,,,A*79
$GPGGA,132959.00,5228.77645,N,01325.34908,E,1,07,1.03,48.4,M,42.2,M,,*69
$GPGSA,A,3,01,19,04,06,09,03,31,,,,,,1.66,1.03,1.30*00
$GPGSV,3,1,11,01,08,159,09,03,44,104,33,04,78,087,24,06,48,296,21*76
$GPGSV,3,2,11,07,06,183,,09,60,229,35,11,18,316,21,17,09,229,*7B
$GPGSV,3,3,11,19,21,251,33,26,08,075,08,31,14,036,14*45
$GPRMC,133000.00,A,5228.77657,N,01325.34902,E,0.083,,300822,,,A*71
$GPRMC,133001.00,A,5228.77696,N,01325.34898,E,0.301,,300822,,,A*76
$GPRMC,133002.00,A,5228.77693,N,01325.34905,E,0.197,,300822,,,A*78
$GPRMC,133003.00,A,5228.77695,N,01325.34913,E,0.226,,300822,,,A*71
$GPRMC,133004.00,A,5228.77653,N,01325.34925,E,0.068,,300822,,,A*71
$GPGGA,133004.00,5228.77653,N,01325.34925,E,1,07,1.03,48.8,M,42.2,M,,*6D
$GPGSA,A,3,01,19,04,06,09,03,31,,,,,,1.66,1.03,1.29*08
$GPGSV,3,1,11,01,08,159,11,03,44,104,32,04,78,087,30,06,48,296,24*7E
$GPGSV,3,2,11,07,06,183,,09,60,229,39,11,18,316,17,17,09,229,*72
$GPGSV,3,3,11,19,21,251,27,26,08,075,09,31,14,036,15*40
$GPRMC,133005.00,A,5228.77646,N,01325.34919,E,0.155,,300822,,,A*74
$GPRMC,133006.00,A,5228.77641,N,01325.34921,E,0.100,,300822,,,A*7B
$GPRMC,133007.00,A,5228.77625,N,01325.34929,E,0.173,,300822,,,A*74
$GPRMC,133008.00,A,5228.77583,N,01325.34945,E,0.244,,300822,,,A*79
$GPRMC,133009.00,A,5228.77572,N,01325.34943,E,0.247,,300822,,,A*73
$GPGGA,133009.00,5228.77572,N,01325.34943,E,1,07,1.03,48.7,M,42.2,M,,*6F
$GPGSA,A,3,01,19,04,06,09,03,31,,,,,,1.65,1.03,1.29*0B
$GPGSV,3,1,11,01,08,159,09,03,44,104,33,04,78,087,27,06,48,296,24*70
$GPGSV,3,2,11,07,06,183,,09,60,229,38,11,18,316,22,17,09,229,*75
$GPGSV,3,3,11,19,21,251,35,26,08,075,13,31,14,036,11*4C
$GPRMC,133010.00,A,5228.77569,N,01325.34941,E,0.023,,300822,,,A*73
$GPRMC,133011.00,A,5228.77517,N,01325.34949,E,0.442,,300822,,,A*70
$GPRMC,133012.00,A,5228.77482,N,01325.34945,E,0.560,,300822,,,A*73
$GPRMC,133013.00,A,5228.77443,N,01325.34948,E,0.735,,300822,,,A*70
$GPRMC,133014.00,A,5228.77412,N,01325.34963,E,0.187,,300822,,,A*75
$GPGGA,133014.00,5228.77412,N,01325.34963,E,1,07,1.03,47.9,M,42.2,M,,*67
$GPGSA,A,3,01,19,04,06,09,03,31,,,,,,1.65,1.03,1.29*0B
$GPGSV,3,1,11,01,08,159,08,03,44,104,37,04,78,087,31,06,48,296,27*71
$GPGSV,3,2,11,07,06,183,,09,60,229,31,11,18,316,16,17,09,229,16*7C
$GPGSV,3,3,11,19,21,251,37,26,08,075,12,31,14,036,19*47
$GPRMC,133015.00,A,5228.77394,N,01325.34965,E,0.131,,300822,,,A*76
$GPRMC,133016.00,A,5228.77379,N,01325.34963,E,0.110,,300822,,,A*73
$GPRMC,133017.00,A,5228.77376,N,01325.34955,E,0.122,,300822,,,A*79
$GPRMC,133018.00,A,5228.77348,N,01325.34957,E,0.320,,300822,,,A*79
$GPRMC,133019.00,A,5228.77338,N,01325.34955,E,0.098,,300822,,,A*7D
$GPGGA,133019.00,5228.77338,N,01325.34955,E,1,07,1.03,48.6,M,42.2,M,,*60
$GPGSA,A,3,01,19,04,06,09,03,31,,,,,,1.65,1.03,1.29*0B
$GPGSV,3,1,11,01,08,159,10,03,43,104,30,04,77,086,26,06,49,296,22*74
$GPGSV,3,2,11,07,06,182,,09,60,229,29,11,18,316,24,17,09,229,08*7A
$GPGSV,3,3,11,19,21,251,38,26,08,075,14,31,14,036,21*45
$GPRMC,133020.00,A,5228.77313,N,01325.34946,E,0.172,,300822,,,A*79
$GPRMC,133021.00,A,5228.77297,N,01325.34946,E,0.170,,300822,,,A*77
$GPRMC,133022.00,A,5228.77294,N,01325.34939,E,0.218,,300822,,,A*72
$GPRMC,133023.00,A,5228.77279,N,01325.34937,E,0.458,,300822,,,A*7C
$GPRMC,133024.00,A,5228.77268,N,01325.34930,E,0.472,,300822,,,A*74
$GPGGA,133024.00,5228.77268,N,01325.34930,E,1,07,1.03,49.2,M,42.2,M,,*6C
$GPGSA,A,3,01,19,04,06,09,03,31,,,,,,1.65,1.03,1.29*0B
$GPGSV,3,1,11,01,08,159,13,03,43,104,29,04,77,086,20,06,49,296,15*7D
$GPGSV,3,2,11,07,06,182,,09,60,229,37,11,18,316,18,17,09,229,*72
$GPGSV,3,3,11,19,21,251,28,26,08,075,,31,14,036,15*46
$GPRMC,133025.00,A,5228.77224,N,01325.34921,E,0.919,,300822,,,A*7D
$GPRMC,133026.00,A,5228.77242,N,01325.34928,E,0.046,,300822,,,A*74
$GPRMC,133027.00,A,5228.77262,N,01325.34914,E,0.235,,300822,,,A*7E
$GPRMC,133028.00,A,5228.77265,N,01325.34904,E,0.117,,300822,,,A*74
$GPRMC,133029.00,A,5228.77349,N,01325.34897,E,0.961,17.14,300822,,,A*55
$GPGGA,133029.00,5228.77349,N,01325.34897,E,1,07,1.03,50.2,M,42.2,M,,*67
$GPGSA,A,3,01,19,04,06,09,03,31,,,,,,1.65,1.03,1.29*0B
$GPGSV,3,1,11,01,08,159,09,03,43,104,32,04,77,086,21,06,49,296,19*71
$GPGSV,3,2,11,07,06,182,,09,60,229,37,11,18,316,16,17,09,228,18*74
$GPGSV,3,3,11,19,21,251,31,26,08,075,,31,14,036,14*4F
$GPRMC,133030.00,A,5228.77426,N,01325.34897,E,1.892,10.00,300822,,,A*5D
$GPRMC,133031.00,A,5228.77510,N,01325.34894,E,1.911,356.40,300822,,,A*64
$GPRMC,133032.00,A,5228.77510,N,01325.34946,E,1.393,,300822,,,A*73
$GPRMC,133033.00,A,5228.77540,N,01325.34920,E,0.972,,300822,,,A*73
$GPRMC,133034.00,A,5228.77570,N,01325.34920,E,1.436,,300822,,,A*7B
$GPGGA,133034.00,5228.77570,N,01325.34920,E,1,07,1.03,50.8,M,42.2,M,,*60
$GPGSA,A,3,01,19,04,06,09,03,31,,,,,,1.65,1.03,1.29*0B
$GPGSV,3,1,11,01,08,159,08,03,43,104,35,04,77,086,27,06,49,296,20*7B
$GPGSV,3,2,11,07,06,182,,09,60,229,25,11,18,316,13,17,09,228,16*7C
$GPGSV,3,3,11,19,21,251,21,26,08,075,,31,14,036,17*4D
$GPRMC,133035.00,A,5228.77558,N,01325.34920,E,0.733,,300822,,,A*77
$GPRMC,133036.00,A,5228.77574,N,01325.34950,E,0.566,,300822,,,A*7F
$GPRMC,133037.00,A,5228.77512,N,01325.34976,E,1.547,35.04,300822,,,A*54
$GPRMC,133038.00,A,5228.77476,N,01325.34972,E,0.361,,300822,,,A*73
$GPRMC,133039.00,A,5228.77512,N,01325.34952,E,0.445,,300822,,,A*72
$GPGGA,133039.00,5228.77512,N,01325.34952,E,1,07,1.03,49.6,M,42.2,M,,*6A
$GPGSA,A,3,01,19,04,06,09,03,31,,,,,,1.65,1.03,1.29*0B
$GPGSV,3,1,11,01,08,159,11,03,43,104,35,04,77,086,27,06,49,296,19*79
$GPGSV,3,2,11,07,06,182,,09,60,229,33,11,18,316,15,17,09,228,*7A
$GPGSV,3,3,11,19,21,251,31,26,08,075,,31,14,036,13*48
$GPRMC,133040.00,A,5228.77493,N,01325.34931,E,0.364,,300822,,,A*75
$GPRMC,133041.00,A,5228.77528,N,01325.34911,E,0.237,,300822,,,A*70
$GPRMC,133042.00,A,5228.77494,N,01325.34911,E,0.352,,300822,,,A*77
$GPRMC,133043.00,A,5228.77476,N,01325.34923,E,0.109,,300822,,,A*77
$GPRMC,133044.00,A,5228.77471,N,01325.34916,E,0.267,,300822,,,A*7A
$GPGGA,133044.00,5228.77471,N,01325.34916,E,1,07,1.03,48.3,M,42.2,M,,*60
$GPGSA,A,3,01,19,04,06,09,03,31,,,,,,1.65,1.03,1.29*0B
$GPGSV,3,1,11,01,08,159,09,03,43,104,33,04,77,086,30,06,49,296,22*78
$GPGSV,3,2,11,07,06,182,,09,60,229,37,11,18,316,09,17,09,228,*73
$GPGSV,3,3,11,19,21,251,29,26,08,075,,31,14,036,18*4A
$GPRMC,133045.00,A,5228.77502,N,01325.34901,E,0.841,,300822,,,A*76
$GPRMC,133046.00,A,5228.77514,N,01325.34897,E,0.572,,300822,,,A*71
$GPRMC,133047.00,A,5228.77472,N,01325.34891,E,0.303,,300822,,,A*77
$GPRMC,133048.00,A,5228.77459,N,01325.34895,E,0.441,,300822,,,A*74
$GPRMC,133049.00,A,5228.77468,N,01325.34890,E,0.660,,300822,,,A*73
$GPGGA,133049.00,5228.77468,N,01325.34890,E,1,07,1.03,47.4,M,42.2,M,,*62
$GPGSA,A,3,01,19,04,06,09,03,31,,,,,,1.65,1.03,1.28*0A
$GPGSV,3,1,11,01,08,159,08,03,43,104,33,04,77,086,26,06,49,296,29*75
$GPGSV,3,2,11,07,06,182,,09,60,229,37,11,18,316,15,17,09,228,*7E
$GPGSV,3,3,11,19,21,251,27,26,08,075,,31,14,036,12*4E
$GPRMC,133050.00,A,5228.77473,N,01325.34884,E,0.110,,300822,,,A*74
$GPRMC,133051.00,A,5228.77449,N,01325.34883,E,0.445,,300822,,,A*7E
$GPRMC,133052.00,A,5228.77424,N,01325.34886,E,0.217,,300822,,,A*72
$GPRMC,133053.00,A,5228.77408,N,01325.34885,E,0.189,,300822,,,A*7A
$GPRMC,133054.00,A,5228.77403,N,01325.34885,E,0.044,,300822,,,A*76
$GPGGA,133054.00,5228.77403,N,01325.34885,E,1,07,1.03,50.4,M,42.2,M,,*61
$GPGSA,A,3,01,19,04,06,09,03,31,,,,,,1.65,1.03,1.28*0A
$GPGSV,3,1,11,01,08,159,09,03,43,104,35,04,77,086,27,06,49,296,30*7B
$GPGSV,3,2,11,07,06,182,,09,60,229,34,11,18,316,15,17,09,228,14*78
$GPGSV,3,3,11,19,21,251,27,26,08,075,,31,14,036,12*4E
$GPRMC,133055.00,A,5228.77389,N,01325.34888,E,0.143,,300822,,,A*79
$GPRMC,133056.00,A,5228.77408,N,01325.34886,E,0.037,,300822,,,A*78
$GPRMC,133057.00,A,5228.77420,N,01325.34888,E,0.711,,300822,,,A*7E
$GPRMC,133058.00,A,5228.77431,N,01325.34890,E,0.846,,300822,,,A*75
$GPRMC,133059.00,A,5228.77467,N,01325.34882,E,0.828,,300822,,,A*7C
$GPGGA,133059.00,5228.77467,N,01325.34882,E,1,07,1.03,51.1,M,42.2,M,,*6D
$GPGSA,A,3,01,19,04,06,09,03,31,,,,,,1.65,1.03,1.28*0A
$GPGSV,3,1,11,01,08,159,08,03,43,104,29,04,77,086,31,06,49,296,21*70
$GPGSV,3,2,11,07,06,182,,09,60,229,44,11,18,316,16,17,09,228,*79
$GPGSV,3,3,11,19,21,251,32,26,08,075,,31,14,036,12*4A
$GPRMC,133100.00,A,5228.77498,N,01325.34867,E,1.341,,300822,,,A*7F
$GPRMC,133101.00,A,5228.77524,N,01325.34857,E,0.831,,300822,,,A*76
$GPRMC,133102.00,A,5228.77520,N,01325.34868,E,0.109,,300822,,,A*7F
$GPRMC,133103.00,A,5228.77490,N,01325.34879,E,0.649,,300822,,,A*77
$GPRMC,133104.00,A,5228.77492,N,01325.34870,E,0.042,,300822,,,A*76
$GPGGA,133104.00,5228.77492,N,01325.34870,E,1,07,1.03,50.9,M,42.2,M,,*6A
$GPGSA,A,3,01,19,04,06,09,03,31,,,,,,1.65,1.03,1.28*0A
$GPGSV,3,1,11,01,08,159,09,03,43,104,32,04,77,085,28,06,49,295,12*73
$GPGSV,3,2,11,07,07,182,,09,60,229,28,11,18,316,22,17,09,228,19*7D
$GPGSV,3,3,11,19,21,251,35,26,08,075,,31,14,036,15*4A
$GPRMC,133105.00,A,5228.77487,N,01325.34873,E,0.435,,300822,,,A*74
$GPRMC,133106.00,A,5228.77490,N,01325.34868,E,0.272,,300822,,,A*7E
$GPRMC,133107.00,A,5228.77477,N,01325.34872,E,0.333,,300822,,,A*79
$GPRMC,133108.00,A,5228.77490,N,01325.34854,E,0.657,,300822,,,A*7C
$GPRMC,133109.00,A,5228.77509,N,01325.34848,E,0.439,,300822,,,A*7B
$GPGGA,133109.00,5228.77509,N,01325.34848,E,1,06,2.09,50.6,M,42.2,M,,*68
$GPGSA,A,3,01,19,04,06,09,03,,,,,,,3.12,2.09,2.32*0B
$GPGSV,3,1,11,01,08,159,09,03,43,104,25,04,77,085,26,06,49,295,21*7B
$GPGSV,3,2,11,07,07,182,,09,60,229,26,11,18,315,19,17,09,228,14*75
$GPGSV,3,3,11,19,21,251,34,26,08,075,,31,14,036,07*48
$GPRMC,133110.00,A,5228.77535,N,01325.34835,E,1.238,,300822,,,A*70
$GPRMC,133111.00,A,5228.77583,N,01325.34842,E,0.990,,300822,,,A*74
$GPRMC,133112.00,A,5228.77609,N,01325.34825,E,0.439,,300822,,,A*79
$GPRMC,133113.00,A,5228.77634,N,01325.34813,E,0.056,,300822,,,A*7E
$GPRMC,133114.00,A,5228.77645,N,01325.34828,E,0.535,,300822,,,A*77
$GPGGA,133114.00,5228.77645,N,01325.34828,E,1,07,1.03,48.7,M,42.2,M,,*69
$GPGSA,A,3,01,19,04,06,09,03,31,,,,,,1.64,1.03,1.28*0B
$GPGSV,3,1,11,01,08,159,11,03,43,104,34,04,77,085,29,06,49,295,25*79
$GPGSV,3,2,11,07,07,182,,09,60,229,28,11,18,315,,17,09,228,19*7E
$GPGSV,3,3,11,19,21,251,32,26,08,075,,31,14,036,12*4A
$GPRMC,133115.00,A,5228.77638,N,01325.34853,E,0.581,,300822,,,A*7F
$GPRMC,133116.00,A,5228.77644,N,01325.34863,E,0.616,,300822,,,A*79
$GPRMC,133117.00,A,5228.77695,N,01325.34864,E,0.426,,300822,,,A*72
$GPRMC,133118.00,A,5228.77704,N,01325.34866,E,0.206,,300822,,,A*72
$GPRMC,133119.00,A,5228.77694,N,01325.34874,E,0.188,,300822,,,A*7D
$GPGGA,133119.00,5228.77694,N,01325.34874,E,1,07,1.03,47.4,M,42.2,M,,*6D
$GPGSA,A,3,01,19,04,06,09,03,31,,,,,,1.64,1.03,1.28*0B
$GPGSV,3,1,11,01,08,159,12,03,43,104,26,04,77,085,27,06,49,295,27*75
$GPGSV,3,2,11,07,07,182,,09,60,229,26,11,18,315,17,17,09,228,09*77
$GPGSV,3,3,11,19,20,251,31,26,08,075,,31,14,036,17*4D
$GPRMC,133120.00,A,5228.77692,N,01325.34890,E,0.069,,300822,,,A*75
$GPRMC,133121.00,A,5228.77711,N,01325.34905,E,0.243,,300822,,,A*79
$GPRMC,133122.00,A,5228.77725,N,01325.34901,E,0.207,,300822,,,A*79
$GPRMC,133123.00,A,5228.77769,N,01325.34886,E,0.361,,300822,,,A*7F
$GPRMC,133124.00,A,5228.77788,N,01325.34879,E,0.166,,300822,,,A*72
$GPGGA,133124.00,5228.77788,N,01325.34879,E,1,07,1.03,46.4,M,42.2,M,,*63
$GPGSA,A,3,01,19,04,06,09,03,31,,,,,,1.64,1.03,1.28*0B
$GPGSV,3,1,11,01,08,159,11,03,43,104,32,04,77,085,28,06,49,295,26*7D
$GPGSV,3,2,11,07,07,182,,09,60,229,33,11,18,315,,A*72
$GPGGA,133124.00,5228.77788,N,01325.34879,E,1,07,1.03,46.4,M,42.2,M,,*63
$GPGSA,A,3,01,19,04,06,09,03,31,,,,,,1.64,1.03,1.28*0B
$GPGSV,3,1,11,01,08,159,11,03,43,104,32,04,77,085,28,06,49,295,26*7D
$GPGSV,3,2,11,07,07,182,,09,60,229,33,11,18,315,09,17,09,228,08*7D
$GPGSV,3,3,11,19,20,251,34,26,08,075,,31,14,036,11*4E
$GPRMC,133125.00,A,5228.77814,N,01325.34872,E,0.019,,300822,,,A*7B
$GPRMC,133126.00,A,5228.77822,N,01325.34891,E,0.401,,300822,,,A*7D
$GPRMC,133127.00,A,5228.77810,N,01325.34901,E,0.603,,300822,,,A*75
$GPRMC,133128.00,A,5228.77813,N,01325.34905,E,0.439,,300822,,,A*76
$GPRMC,133129.00,A,5228.77800,N,01325.34910,E,0.629,,300822,,,A*72
$GPGGA,133129.00,5228.77800,N,01325.34910,E,1,08,0.98,46.2,M,42.2,M,,*65
$GPGSA,A,3,01,19,04,06,09,03,17,31,,,,,1.53,0.98,1.17*06
$GPGSV,3,1,11,01,08,159,11,03,43,104,31,04,77,085,20,06,49,295,22*72
$GPGSV,3,2,11,07,07,182,,09,60,229,28,11,18,315,13,17,09,228,11*74
$GPGSV,3,3,11,19,20,251,34,26,08,075,,31,14,036,11*4E
$GPRMC,133130.00,A,5228.77773,N,01325.34911,E,0.814,,300822,,,A*70
$GPRMC,133131.00,A,5228.77757,N,01325.34922,E,0.839,,300822,,,A*78
$GPRMC,133132.00,A,5228.77761,N,01325.34928,E,0.517,,300822,,,A*75
$GPRMC,133133.00,A,5228.77776,N,01325.34934,E,0.254,,300822,,,A*7F
$GPRMC,133134.00,A,5228.77796,N,01325.34935,E,0.334,,300822,,,A*70
$GPGGA,133134.00,5228.77796,N,01325.34935,E,1,07,1.03,46.1,M,42.2,M,,*61
$GPGSA,A,3,01,19,04,06,09,03,31,,,,,,1.64,1.03,1.28*0B
$GPGSV,3,1,11,01,08,159,09,03,43,104,29,04,77,085,21,06,49,295,23*72
$GPGSV,3,2,11,07,07,182,,09,60,229,29,11,18,315,16,17,09,228,08*78
$GPGSV,3,3,11,19,20,251,33,26,08,075,,31,14,036,13*4B
$GPRMC,133135.00,A,5228.77766,N,01325.34944,E,0.824,,300822,,,A*72
$GPRMC,133136.00,A,5228.77729,N,01325.34964,E,1.437,136.62,300822,,,A*69
$GPRMC,133137.00,A,5228.77741,N,01325.34945,E,0.753,,300822,,,A*7B
$GPRMC,133138.00,A,5228.77733,N,01325.34932,E,0.705,,300822,,,A*72
$GPRMC,133139.00,A,5228.77726,N,01325.34926,E,0.948,150.81,300822,,,A*66
$GPGGA,133139.00,5228.77726,N,01325.34926,E,1,08,0.98,46.1,M,42.2,M,,*69
$GPGSA,A,3,01,19,04,06,09,03,17,31,,,,,1.52,0.98,1.16*06
$GPGSV,3,1,11,01,08,159,09,03,43,104,34,04,77,085,26,06,49,295,25*7F
$GPGSV,3,2,11,07,07,182,,09,60,229,36,11,18,315,10,17,09,228,13*7A
$GPGSV,3,3,11,19,20,251,28,26,08,075,,31,14,036,09*4A
$GPRMC,133140.00,A,5228.77710,N,01325.34920,E,0.286,,300822,,,A*71
$GPRMC,133141.00,A,5228.77722,N,01325.34911,E,0.141,,300822,,,A*7B
$GPRMC,133142.00,A,5228.77654,N,01325.34914,E,1.228,165.61,300822,,,A*6B
$GPRMC,133143.00,A,5228.77637,N,01325.34908,E,1.015,168.73,300822,,,A*60
$GPRMC,133144.00,A,5228.77701,N,01325.34899,E,0.064,,300822,,,A*78
$GPGGA,133144.00,5228.77701,N,01325.34899,E,1,07,1.03,48.0,M,42.2,M,,*60
$GPGSA,A,3,01,19,04,06,09,03,31,,,,,,1.64,1.03,1.27*04
$GPGSV,3,1,11,01,07,159,11,03,43,104,35,04,77,085,22,06,49,295,18*72
$GPGSV,3,2,11,07,07,182,,09,60,229,37,11,18,315,16,17,09,228,08*77
$GPGSV,3,3,11,19,20,251,33,26,08,075,,31,14,036,16*4E
$GPRMC,133145.00,A,5228.77749,N,01325.34900,E,0.466,,300822,,,A*72
$GPRMC,133146.00,A,5228.77708,N,01325.34931,E,0.409,,300822,,,A*7F
$GPRMC,133147.00,A,5228.77762,N,01325.34929,E,0.350,,300822,,,A*70
$GPRMC,133148.00,A,5228.77795,N,01325.34924,E,0.452,,300822,,,A*7F
$GPRMC,133149.00,A,5228.77802,N,01325.34934,E,0.130,,300822,,,A*7F
$GPGGA,133149.00,5228.77802,N,01325.34934,E,1,07,1.28,48.5,M,42.2,M,,*6B
$GPGSA,A,3,19,04,06,09,03,17,31,,,,,,1.81,1.28,1.29*0F
$GPGSV,3,1,11,01,07,159,06,03,43,104,36,04,77,084,26,06,49,295,14*7E
$GPGSV,3,2,11,07,07,182,,09,60,229,27,11,18,315,08,17,09,228,13*73
$GPGSV,3,3,11,19,20,251,33,26,08,075,,31,14,036,15*4D
$GPRMC,133150.00,A,5228.77776,N,01325.34941,E,0.624,,300822,,,A*7B
$GPRMC,133151.00,A,5228.77798,N,01325.34935,E,0.163,,300822,,,A*7D
$GPRMC,133152.00,A,5228.77856,N,01325.34928,E,0.985,79.55,300822,,,A*5F
$GPRMC,133153.00,A,5228.77838,N,01325.34925,E,0.341,,300822,,,A*79
$GPRMC,133154.00,A,5228.77878,N,01325.34914,E,0.993,33.17,300822,,,A*55
$GPGGA,133154.00,5228.77878,N,01325.34914,E,1,08,0.98,48.7,M,42.2,M,,*6F
$GPGSA,A,3,01,19,04,06,09,03,17,31,,,,,1.52,0.98,1.16*06
$GPGSV,3,1,11,01,07,159,09,03,43,104,36,04,77,084,20,06,49,295,16*75
$GPGSV,3,2,11,07,07,182,,09,61,230,27,11,19,315,,17,09,228,09*78
$GPGSV,3,3,11,19,20,251,33,26,08,075,,31,14,036,12*4A
$GPRMC,133155.00,A,5228.77920,N,01325.34908,E,1.154,10.33,300822,,,A*50
$GPRMC,133156.00,A,5228.78007,N,01325.34889,E,1.508,358.94,300822,,,A*67
$GPRMC,133157.00,A,5228.77968,N,01325.34892,E,0.270,,300822,,,A*77
$GPRMC,133158.00,A,5228.77935,N,01325.34891,E,0.156,,300822,,,A*74
$GPRMC,133159.00,A,5228.77876,N,01325.34903,E,0.228,,300822,,,A*73
$GPGGA,133159.00,5228.77876,N,01325.34903,E,1,08,0.98,50.4,M,42.2,M,,*60
$GPGSA,A,3,01,19,04,06,09,03,17,31,,,,,1.52,0.98,1.16*06
$GPGSV,3,1,11,01,07,159,09,03,43,104,32,04,77,084,25,06,49,295,16*74
$GPGSV,3,2,11,07,07,182,,09,61,230,23,11,19,315,,17,09,228,10*74
$GPGSV,3,3,11,19,20,251,31,26,08,075,,31,14,036,09*42
$GPRMC,133200.00,A,5228.77854,N,01325.34906,E,0.192,,300822,,,A*7B
$GPRMC,133201.00,A,5228.77878,N,01325.34901,E,0.230,,300822,,,A*78
$GPRMC,133202.00,A,5228.77796,N,01325.34914,E,0.191,,300822,,,A*78
$GPRMC,133203.00,A,5228.77754,N,01325.34921,E,0.307,,300822,,,A*7C
$GPRMC,133204.00,A,5228.77705,N,01325.34934,E,0.627,,300822,,,A*7C
$GPGGA,133204.00,5228.77705,N,01325.34934,E,1,08,0.98,50.6,M,42.2,M,,*66
$GPGSA,A,3,01,19,04,06,09,03,17,31,,,,,1.52,0.98,1.16*06
$GPGSV,3,1,11,01,07,159,10,03,43,104,31,04,77,084,23,06,49,295,20*7C
$GPGSV,3,2,11,07,07,182,,09,61,230,22,11,19,315,,17,09,228,09*7D
$GPGSV,3,3,11,19,20,250,31,26,08,075,,31,14,036,14*4F
$GPRMC,133205.00,A,5228.77613,N,01325.34948,E,0.663,,300822,,,A*70
$GPRMC,133206.00,A,5228.77619,N,01325.34956,E,0.139,,300822,,,A*7E
$GPRMC,133207.00,A,5228.77591,N,01325.34972,E,0.245,,300822,,,A*72
$GPRMC,133208.00,A,5228.77475,N,01325.35004,E,1.128,67.58,300822,,,A*54
$GPRMC,133209.00,A,5228.77471,N,01325.35011,E,1.059,122.56,300822,,,A*6C
$GPGGA,133209.00,5228.77471,N,01325.35011,E,1,08,0.98,49.5,M,42.2,M,,*6F
$GPGSA,A,3,01,19,04,06,09,03,17,31,,,,,1.52,0.98,1.16*06
$GPGSV,3,1,11,01,07,159,10,03,43,104,37,04,77,084,25,06,49,295,16*79
$GPGSV,3,2,11,07,07,182,,09,61,230,34,11,19,315,,17,09,228,10*72
$GPGSV,3,3,11,19,20,250,28,26,08,074,,31,14,036,17*45
$GPRMC,133210.00,A,5228.77482,N,01325.35026,E,1.049,,300822,,,A*71
$GPRMC,133211.00,A,5228.77544,N,01325.35034,E,0.247,,300822,,,A*75
$GPRMC,133212.00,A,5228.77462,N,01325.35036,E,0.600,,300822,,,A*76
$GPRMC,133213.00,A,5228.77499,N,01325.35035,E,0.326,,300822,,,A*71
$GPRMC,133214.00,A,5228.77492,N,01325.35028,E,0.192,,300822,,,A*7C
$GPGGA,133214.00,5228.77492,N,01325.35028,E,1,08,0.98,50.5,M,42.2,M,,*6C
$GPGSA,A,3,01,19,04,06,09,03,17,31,,,,,1.52,0.98,1.16*06
$GPGSV,3,1,11,01,07,159,08,03,43,104,27,04,77,084,32,06,49,295,23*71
$GPGSV,3,2,11,07,07,182,,09,61,230,42,11,19,315,18,17,09,228,19*73
$GPGSV,3,3,11,19,20,250,30,26,08,074,,31,14,036,10*4B
$GPRMC,133215.00,A,5228.77473,N,01325.35040,E,0.234,,300822,,,A*73
$GPRMC,133216.00,A,5228.77479,N,01325.35042,E,0.102,,300822,,,A*7E
$GPRMC,133217.00,A,5228.77506,N,01325.35041,E,0.153,,300822,,,A*71
$GPRMC,133218.00,A,5228.77506,N,01325.35038,E,0.166,,300822,,,A*76
$GPRMC,133219.00,A,5228.77480,N,01325.35031,E,0.309,,300822,,,A*7A
$GPGGA,133219.00,5228.77480,N,01325.35031,E,1,08,0.98,50.4,M,42.2,M,,*6B
$GPGSA,A,3,01,19,04,06,09,03,17,31,,,,,1.52,0.98,1.16*06
$GPGSV,3,1,11,01,07,159,09,03,43,104,27,04,77,084,22,06,49,295,24*76
$GPGSV,3,2,11,07,07,182,,09,61,230,26,11,19,315,18,17,09,228,09*70
$GPGSV,3,3,11,19,20,250,32,26,08,074,16,31,14,036,15*4B
$GPRMC,133220.00,A,5228.77409,N,01325.35040,E,0.147,,300822,,,A*7F
$GPRMC,133221.00,A,5228.77372,N,01325.35052,E,0.348,,300822,,,A*7B
$GPRMC,133222.00,A,5228.77370,N,01325.35040,E,0.153,,300822,,,A*71
$GPRMC,133223.00,A,5228.77365,N,01325.35029,E,0.162,,300822,,,A*79
$GPRMC,133224.00,A,5228.77366,N,01325.35024,E,0.128,,300822,,,A*7E
$GPGGA,133224.00,5228.77366,N,01325.35024,E,1,06,1.49,51.1,M,42.2,M,,*69
$GPGSA,A,3,19,04,06,09,03,31,,,,,,,2.26,1.49,1.70*0C
$GPGSV,3,1,11,01,07,159,07,03,43,104,27,04,77,084,24,06,49,295,28*72
$GPGSV,3,2,11,07,07,182,,09,61,230,25,11,19,315,24,17,09,228,*75
$GPGSV,3,3,11,19,20,250,26,26,08,074,11,31,14,036,10*4C
$GPRMC,133225.00,A,5228.77369,N,01325.35024,E,0.055,,300822,,,A*7B
$GPRMC,133226.00,A,5228.77373,N,01325.35019,E,0.124,,300822,,,A*7A
$GPRMC,133227.00,A,5228.77378,N,01325.35008,E,0.172,,300822,,,A*73
$GPRMC,133228.00,A,5228.77378,N,01325.34994,E,0.177,,300822,,,A*74
$GPRMC,133229.00,A,5228.77402,N,01325.34991,E,0.050,,300822,,,A*7E
$GPGGA,133229.00,5228.77402,N,01325.34991,E,1,07,1.03,51.6,M,42.2,M,,*6F
$GPGSA,A,3,01,19,04,06,09,03,31,,,,,,1.63,1.03,1.26*02
$GPGSV,3,1,11,01,07,159,08,03,43,104,20,04,77,084,24,06,49,295,27*75
$GPGSV,3,2,11,07,07,182,,09,61,230,24,11,19,315,22,17,09,228,*72
$GPGSV,3,3,11,19,20,250,28,26,08,074,14,31,14,036,12*45
$GPRMC,133230.00,A,5228.77400,N,01325.34980,E,0.217,,300822,,,A*75
$GPRMC,133231.00,A,5228.77401,N,01325.34987,E,0.136,,300822,,,A*72
$GPRMC,133232.00,A,5228.77468,N,01325.34980,E,0.432,,300822,,,A*78
$GPRMC,133233.00,A,5228.77501,N,01325.34974,E,0.424,,300822,,,A*7B
$GPRMC,133234.00,A,5228.77518,N,01325.34963,E,0.301,,300822,,,A*72
$GPGGA,133234.00,5228.77518,N,01325.34963,E,1,07,1.03,51.9,M,42.2,M,,*6B
$GPGSA,A,3,01,19,04,06,09,03,31,,,,,,1.63,1.03,1.26*02
$GPGSV,3,1,11,01,07,159,09,03,42,105,34,04,76,083,28,06,49,294,17*79
$GPGSV,3,2,11,07,07,182,,09,61,230,32,11,19,315,21,17,09,228,13*74
$GPGSV,3,3,11,19,20,250,38,26,08,074,,31,14,036,18*4B
$GPRMC,133235.00,A,5228.77552,N,01325.34959,E,0.385,,300822,,,A*78
$GPRMC,133236.00,A,5228.77582,N,01325.34954,E,0.256,,300822,,,A*74
$GPRMC,133237.00,A,5228.77638,N,01325.34942,E,0.691,,300822,,,A*7F
$GPRMC,133238.00,A,5228.77712,N,01325.34918,E,1.092,48.25,300822,,,A*57
$GPRMC,133239.00,A,5228.77783,N,01325.34898,E,1.272,15.37,300822,,,A*50
$GPGGA,133239.00,5228.77783,N,01325.34898,E,1,07,1.28,53.5,M,42.2,M,,*64
$GPGSA,A,3,19,04,06,09,03,17,31,,,,,,1.80,1.28,1.28*0F
$GPGSV,3,1,11,01,07,159,07,03,42,105,34,04,76,083,24,06,49,294,20*7F
$GPGSV,3,2,11,07,07,182,,09,61,230,34,11,19,315,18,17,09,228,11*7A
$GPGSV,3,3,11,19,20,250,36,26,08,074,,31,14,036,13*4E
$GPRMC,133240.00,A,5228.77732,N,01325.34902,E,0.225,,300822,,,A*7B
$GPRMC,133241.00,A,5228.77713,N,01325.34907,E,0.166,,300822,,,A*78
$GPRMC,133242.00,A,5228.77694,N,01325.34905,E,0.384,,300822,,,A*79
$GPRMC,133243.00,A,5228.77715,N,01325.34891,E,0.207,,300822,,,A*76
$GPRMC,133244.00,A,5228.77632,N,01325.34885,E,0.977,,300822,,,A*7C
$GPGGA,133244.00,5228.77632,N,01325.34885,E,1,08,0.98,53.8,M,42.2,M,,*61
$GPGSA,A,3,01,19,04,06,09,03,17,31,,,,,1.52,0.98,1.15*05
$GPGSV,3,1,11,01,07,159,08,03,42,105,27,04,76,083,18,06,49,294,18*76
$GPGSV,3,2,11,07,07,182,,09,61,230,32,11,19,315,18,17,08,228,11*7D
$GPGSV,3,3,11,19,20,250,34,26,08,074,,31,14,036,08*46
$GPRMC,133245.00,A,5228.77627,N,01325.34884,E,1.051,69.40,300822,,,A*51
$GPRMC,133246.00,A,5228.77666,N,01325.34879,E,0.826,,300822,,,A*79
$GPRMC,133247.00,A,5228.77701,N,01325.34869,E,0.324,,300822,,,A*70
$GPRMC,133248.00,A,5228.77713,N,01325.34879,E,0.351,,300822,,,A*7F
$GPRMC,133249.00,A,5228.77734,N,01325.34875,E,0.115,,300822,,,A*75
$GPGGA,133249.00,5228.77734,N,01325.34875,E,1,07,1.03,53.6,M,42.2,M,,*66
$GPGSA,A,3,01,19,04,06,09,03,31,,,,,,1.63,1.03,1.26*02
$GPGSV,3,1,11,01,07,159,09,03,42,105,29,04,76,083,22,06,49,294,20*7B
$GPGSV,3,2,11,07,07,182,,09,61,230,33,11,19,315,15,17,08,228,08*79
$GPGSV,3,3,11,19,20,250,37,26,08,074,,31,14,036,11*4D
$GPRMC,133250.00,A,5228.77752,N,01325.34873,E,0.126,,300822,,,A*7B
$GPRMC,133251.00,A,5228.77735,N,01325.34877,E,0.065,,300822,,,A*79
$GPRMC,133252.00,A,5228.77767,N,01325.34874,E,0.114,,300822,,,A*79
$GPRMC,133253.00,A,5228.77680,N,01325.34881,E,0.071,,300822,,,A*78
$GPRMC,133254.00,A,5228.77670,N,01325.34894,E,0.215,,300822,,,A*74
$GPGGA,133254.00,5228.77670,N,01325.34894,E,1,07,1.03,53.6,M,42.2,M,,*64
$GPGSA,A,3,01,19,04,06,09,03,31,,,,,,1.63,1.03,1.26*02
$GPGSV,3,1,11,01,07,159,11,03,42,105,28,04,76,083,16,06,49,294,23*77
$GPGSV,3,2,11,07,07,182,,09,61,230,32,11,19,315,15,17,08,228,*70
$GPGSV,3,3,11,19,20,250,34,26,08,074,,31,14,036,10*4F
$GPRMC,133255.00,A,5228.77721,N,01325.34886,E,0.090,,300822,,,A*7C
$GPRMC,133256.00,A,5228.77778,N,01325.34883,E,0.197,,300822,,,A*70
$GPRMC,133257.00,A,5228.77766,N,01325.34883,E,0.042,,300822,,,A*77
$GPRMC,133258.00,A,5228.77752,N,01325.34886,E,0.117,,300822,,,A*7B
$GPRMC,133259.00,A,5228.77726,N,01325.34881,E,0.125,,300822,,,A*7F
$GPGGA,133259.00,5228.77726,N,01325.34881,E,1,07,1.03,53.3,M,42.2,M,,*6A
$GPGSA,A,3,01,19,04,06,09,03,31,,,,,,1.63,1.03,1.26*02
$GPGSV,3,1,11,01,07,159,09,03,42,105,23,04,76,083,19,06,49,294,19*73
$GPGSV,3,2,11,07,07,182,,09,61,230,34,11,19,315,17,17,08,228,*74
$GPGSV,3,3,11,19,20,250,36,26,08,074,,31,13,036,10*4A
$GPRMC,133300.00,A,5228.77751,N,01325.34867,E,0.266,,300822,,,A*7E
$GPRMC,133301.00,A,5228.77705,N,01325.34867,E,0.110,,300822,,,A*7C
$GPRMC,133302.00,A,5228.77669,N,01325.34864,E,0.217,,300822,,,A*73
$GPRMC,133303.00,A,5228.77663,N,01325.34865,E,0.201,,300822,,,A*7E
$GPRMC,133304.00,A,5228.77629,N,01325.34864,E,0.258,,300822,,,A*7A
$GPGGA,133304.00,5228.77629,N,01325.34864,E,1,07,1.03,52.8,M,42.2,M,,*6C
$GPGSA,A,3,01,19,04,06,09,03,31,,,,,,1.63,1.03,1.26*02
$GPGSV,3,1,11,01,07,159,10,03,42,105,15,04,76,083,09,06,49,294,17*71
$GPGSV,3,2,11,07,07,182,,09,61,230,34,11,19,315,18,17,08,228,*7B
$GPGSV,3,3,11,19,20,250,36,26,08,074,,31,13,036,15*4F
$GPRMC,133305.00,A,5228.77556,N,01325.34886,E,0.293,,300822,,,A*7B
$GPRMC,133306.00,A,5228.77567,N,01325.34876,E,0.214,,300822,,,A*7A
$GPRMC,133307.00,A,5228.77615,N,01325.34872,E,0.263,,300822,,,A*79
$GPRMC,133308.00,A,5228.77525,N,01325.34887,E,0.159,,300822,,,A*76
$GPRMC,133309.00,A,5228.77494,N,01325.34889,E,0.281,,300822,,,A*74
$GPGGA,133309.00,5228.77494,N,01325.34889,E,1,05,1.31,51.9,M,42.2,M,,*67
$GPGSA,A,3,01,19,06,09,31,,,,,,,,2.30,1.31,1.89*04
$GPGSV,3,1,11,01,07,159,10,03,42,105,10,04,76,083,09,06,49,294,18*7B
$GPGSV,3,2,11,07,07,182,,09,61,230,32,11,19,315,16,17,08,228,*73
$GPGSV,3,3,11,19,20,250,36,26,08,074,,31,13,036,12*48
$GPRMC,133310.00,A,5228.77511,N,01325.34882,E,0.222,,300822,,,A*72
$GPRMC,133311.00,A,5228.77491,N,01325.34886,E,0.064,,300822,,,A*7E
$GPRMC,133312.00,A,5228.77460,N,01325.34907,E,0.161,,300822,,,A*7F
$GPRMC,133313.00,A,5228.77391,N,01325.34953,E,0.562,,300822,,,A*71
$GPRMC,133314.00,A,5228.77331,N,01325.34997,E,0.325,,300822,,,A*71
$GPGGA,133314.00,5228.77331,N,01325.34997,E,1,07,1.03,50.5,M,42.2,M,,*63
$GPGSA,A,3,01,19,04,06,09,03,31,,,,,,1.63,1.03,1.26*02
$GPGSV,3,1,11,01,07,159,10,03,42,105,21,04,76,083,18,06,49,294,21*73
$GPGSV,3,2,11,07,07,182,,09,61,230,34,11,19,315,16,17,08,228,*75
$GPGSV,3,3,11,19,20,250,35,26,08,074,,31,13,036,11*48
$GPRMC,133315.00,A,5228.77363,N,01325.34985,E,0.134,,300822,,,A*76
$GPRMC,133316.00,A,5228.77423,N,01325.35022,E,0.469,,300822,,,A*7E
$GPRMC,133317.00,A,5228.77386,N,01325.35049,E,0.400,,300822,,,A*75
$GPRMC,133318.00,A,5228.77364,N,01325.35046,E,0.285,,300822,,,A*72
$GPRMC,133319.00,A,5228.77323,N,01325.35032,E,0.144,,300822,,,A*7D
$GPGGA,133319.00,5228.77323,N,01325.35032,E,1,07,1.03,50.1,M,42.2,M,,*6E
$GPGSA,A,3,01,19,04,06,09,03,31,,,,,,1.63,1.03,1.25*01
$GPGSV,3,1,11,01,07,159,11,03,42,105,21,04,76,082,18,06,50,294,18*71
$GPGSV,3,2,11,07,08,182,,09,61,230,33,11,19,315,18,17,08,228,*73
$GPGSV,3,3,11,19,20,250,36,26,08,074,,31,13,036,13*49
$GPRMC,133320.00,A,5228.77330,N,01325.35077,E,0.344,,300822,,,A*76
$GPRMC,133321.00,A,5228.77396,N,01325.35073,E,0.766,,300822,,,A*7B
$GPRMC,133322.00,A,5228.77455,N,01325.35051,E,1.157,,300822,,,A*75
$GPRMC,133323.00,A,5228.77411,N,01325.35031,E,0.918,,300822,,,A*70
$GPRMC,133324.00,A,5228.77341,N,01325.35026,E,0.495,,300822,,,A*7B
$GPGGA,133324.00,5228.77341,N,01325.35026,E,1,07,1.03,50.2,M,42.2,M,,*62
$GPGSA,A,3,01,19,04,06,09,03,31,,,,,,1.62,1.03,1.25*00
$GPGSV,3,1,11,01,07,159,12,03,42,105,21,04,76,082,18,06,50,294,18*72
$GPGSV,3,2,11,07,08,182,,09,62,230,32,11,19,315,19,17,08,228,*70
$GPGSV,3,3,11,19,20,250,35,26,08,074,,31,13,036,08*40
$GPRMC,133325.00,A,5228.77346,N,01325.35024,E,0.587,,300822,,,A*7D
$GPRMC,133326.00,A,5228.77319,N,01325.35019,E,0.298,,300822,,,A*73
$GPRMC,133327.00,A,5228.77293,N,01325.35031,E,0.160,,300822,,,A*7F
$GPRMC,133328.00,A,5228.77240,N,01325.35037,E,0.087,,300822,,,A*70
$GPRMC,133329.00,A,5228.77138,N,01325.35053,E,0.065,,300822,,,A*73
$GPGGA,133329.00,5228.77138,N,01325.35053,E,1,07,1.03,50.6,M,42.2,M,,*65
$GPGSA,A,3,01,19,04,06,09,03,31,,,,,,1.62,1.03,1.25*00
$GPGSV,3,1,11,01,07,159,07,03,42,105,27,04,76,082,23,06,50,294,21*72
$GPGSV,3,2,11,07,08,182,,09,62,230,33,11,19,315,11,17,08,228,*79
$GPGSV,3,3,11,19,20,250,34,26,08,074,,31,13,036,09*40
$GPRMC,133330.00,A,5228.77104,N,01325.35047,E,0.179,,300822,,,A*7D
$GPRMC,133331.00,A,5228.77086,N,01325.35048,E,0.151,,300822,,,A*72
$GPRMC,133332.00,A,5228.77070,N,01325.35069,E,0.075,,300822,,,A*7C
$GPRMC,133333.00,A,5228.77041,N,01325.35073,E,0.028,,300822,,,A*7C
$GPRMC,133334.00,A,5228.77031,N,01325.35059,E,0.104,,300822,,,A*7B
$GPGGA,133334.00,5228.77031,N,01325.35059,E,1,07,1.03,50.5,M,42.2,M,,*68
$GPGSA,A,3,01,19,04,06,09,03,31,,,,,,1.62,1.03,1.25*00
$GPGSV,3,1,11,01,07,159,10,03,42,105,34,04,76,082,15,06,50,294,21*73
$GPGSV,3,2,11,07,08,182,,09,62,230,27,11,19,315,,17,08,228,*7C
$GPGSV,3,3,11,19,20,250,37,26,08,074,,31,13,036,13*48
$GPRMC,133335.00,A,5228.77031,N,01325.35030,E,0.259,,300822,,,A*7E
$GPRMC,133336.00,A,5228.77082,N,01325.35013,E,0.643,,300822,,,A*7B
$GPRMC,133337.00,A,5228.77083,N,01325.35008,E,0.653,,300822,,,A*70
$GPRMC,133338.00,A,5228.77008,N,01325.35022,E,0.683,,300822,,,A*79
$GPRMC,133339.00,A,5228.76984,N,01325.35021,E,0.549,,300822,,,A*72
$GPGGA,133339.00,5228.76984,N,01325.35021,E,1,07,1.03,51.2,M,42.2,M,,*6A
$GPGSA,A,3,01,19,04,06,09,03,31,,,,,,1.62,1.03,1.25*00
$GPGSV,3,1,11,01,07,159,07,03,42,105,30,04,76,082,18,06,50,294,23*7E
$GPGSV,3,2,11,07,08,182,,09,62,230,30,11,19,315,18,17,08,228,07*74
$GPGSV,3,3,11,19,20,250,34,26,08,074,,31,13,036,09*40
$GPRMC,133340.00,A,5228.76952,N,01325.35011,E,0.416,,300822,,,A*7F
$GPRMC,133341.00,A,5228.76892,N,01325.35018,E,0.255,,300822,,,A*7B
$GPRMC,133342.00,A,5228.76909,N,01325.34956,E,0.345,,300822,,,A*79
$GPRMC,133343.00,A,5228.76854,N,01325.34949,E,0.037,,300822,,,A*79
$GPRMC,133344.00,A,5228.76854,N,01325.34928,E,0.531,,300822,,,A*7A
$GPGGA,133344.00,5228.76854,N,01325.34928,E,1,08,0.99,52.5,M,42.2,M,,*64
$GPGSA,A,3,01,19,04,06,09,03,17,31,,,,,1.51,0.99,1.14*06
$GPGSV,3,1,11,01,07,159,08,03,42,105,30,04,76,082,23,06,50,294,22*78
$GPGSV,3,2,11,07,08,182,,09,62,230,28,11,19,315,22,17,08,228,11*73
$GPGSV,3,3,11,19,20,250,33,26,08,074,,31,13,035,07*4A
$GPRMC,133345.00,A,5228.76884,N,01325.34922,E,0.470,,300822,,,A*78
$GPRMC,133346.00,A,5228.76888,N,01325.34885,E,0.329,,300822,,,A*70
$GPRMC,133347.00,A,5228.76992,N,01325.34841,E,0.190,,300822,,,A*73
$GPRMC,133348.00,A,5228.77012,N,01325.34815,E,0.223,,300822,,,A*76
$GPRMC,133349.00,A,5228.77038,N,01325.34795,E,0.347,,300822,,,A*7B
$GPGGA,133349.00,5228.77038,N,01325.34795,E,1,08,0.99,53.5,M,42.2,M,,*63
$GPGSA,A,3,01,19,04,06,09,03,17,31,,,,,1.51,0.99,1.14*06
$GPGSV,3,1,11,01,07,159,10,03,42,105,29,04,76,082,28,06,50,294,22*72
$GPGSV,3,2,11,07,08,182,,09,62,230,34,11,19,315,25,17,08,228,11*79
$GPGSV,3,3,11,19,20,250,30,26,08,074,,31,13,035,11*4E
$GPRMC,133350.00,A,5228.77060,N,01325.34814,E,0.076,,300822,,,A*79
$GPRMC,133351.00,A,5228.77080,N,01325.34780,E,0.088,,300822,,,A*75
$GPRMC,133352.00,A,5228.77131,N,01325.34774,E,0.531,,300822,,,A*71
$GPRMC,133353.00,A,5228.77201,N,01325.34755,E,0.366,,300822,,,A*77
$GPRMC,133354.00,A,5228.77202,N,01325.34728,E,0.204,,300822,,,A*7C
$GPGGA,133354.00,5228.77202,N,01325.34728,E,1,08,0.99,54.4,M,42.2,M,,*64
$GPGSA,A,3,01,19,04,06,09,03,17,31,,,,,1.51,0.99,1.14*06
$GPGSV,3,1,11,01,07,159,08,03,42,105,33,04,76,082,28,06,50,294,18*79
$GPGSV,3,2,11,07,08,182,,09,62,230,31,11,19,315,19,17,08,228,09*7A
$GPGSV,3,3,11,19,20,250,34,26,08,074,,31,13,035,10*4B
$GPRMC,133355.00,A,5228.77226,N,01325.34714,E,0.359,,300822,,,A*7D
$GPRMC,133356.00,A,5228.77234,N,01325.34713,E,0.343,,300822,,,A*71
$GPRMC,133357.00,A,5228.77267,N,01325.34702,E,0.334,,300822,,,A*76
$GPRMC,133358.00,A,5228.77324,N,01325.34696,E,0.557,,300822,,,A*70
$GPRMC,133359.00,A,5228.77311,N,01325.34686,E,0.461,,300822,,,A*72
$GPGGA,133359.00,5228.77311,N,01325.34686,E,1,08,0.99,55.0,M,42.2,M,,*6A
$GPGSA,A,3,01,19,04,06,09,03,17,31,,,,,1.51,0.99,1.14*06
$GPGSV,3,1,11,01,06,159,12,03,42,105,35,04,76,082,22,06,50,294,21*75
$GPGSV,3,2,11,07,08,182,,09,62,230,35,11,19,315,22,17,08,228,09*76
$GPGSV,3,3,11,19,20,250,35,26,08,074,,31,13,035,11*4B
$GPRMC,133400.00,A,5228.77344,N,01325.34679,E,0.648,,300822,,,A*70
$GPRMC,133401.00,A,5228.77406,N,01325.34689,E,1.021,,300822,,,A*77
$GPRMC,133402.00,A,5228.77387,N,01325.34707,E,0.203,,300822,,,A*7E
$GPRMC,133403.00,A,5228.77497,N,01325.34696,E,1.158,23.65,300822,,,A*50
$GPRMC,133404.00,A,5228.77527,N,01325.34726,E,1.684,,300822,,,A*7D
$GPGGA,133404.00,5228.77527,N,01325.34726,E,1,08,0.99,53.8,M,42.2,M,,*63
$GPGSA,A,3,01,19,04,06,09,03,17,31,,,,,1.51,0.99,1.14*06
$GPGSV,3,1,11,01,06,159,10,03,42,105,26,04,76,081,32,06,50,294,17*72
$GPGSV,3,2,11,07,08,182,,09,62,230,37,11,19,315,17,17,08,228,15*7F
$GPGSV,3,3,11,19,20,250,31,26,08,074,,31,13,035,12*4C
$GPRMC,133405.00,A,5228.77514,N,01325.34750,E,0.990,,300822,,,A*76
$GPRMC,133406.00,A,5228.77514,N,01325.34783,E,0.409,,300822,,,A*76
$GPRMC,133407.00,A,5228.77535,N,01325.34788,E,0.305,,300822,,,A*74
$GPRMC,133408.00,A,5228.77558,N,01325.34804,E,0.209,,300822,,,A*76
$GPRMC,133409.00,A,5228.77558,N,01325.34801,E,0.182,,300822,,,A*72
$GPGGA,133409.00,5228.77558,N,01325.34801,E,1,08,0.99,53.2,M,42.2,M,,*66
$GPGSA,A,3,01,19,04,06,09,03,17,31,,,,,1.51,0.99,1.14*06
$GPGSV,3,1,11,01,06,159,08,03,42,105,31,04,76,081,29,06,50,294,21*72
$GPGSV,3,2,11,07,08,182,,09,62,230,31,11,20,315,18,17,08,228,09*71
$GPGSV,3,3,11,19,20,250,29,26,08,074,,31,13,035,12*45
$GPRMC,133410.00,A,5228.77563,N,01325.34802,E,0.148,,300822,,,A*77
$GPRMC,133411.00,A,5228.77591,N,01325.34791,E,0.205,,300822,,,A*74
$GPRMC,133412.00,A,5228.77615,N,01325.34797,E,0.305,,300822,,,A*7F
$GPRMC,133413.00,A,5228.77606,N,01325.34828,E,0.433,,300822,,,A*75
$GPRMC,133414.00,A,5228.77566,N,01325.34857,E,0.231,,300822,,,A*7B
$GPGGA,133414.00,5228.77566,N,01325.34857,E,1,08,0.99,53.0,M,42.2,M,,*66
$GPGSA,A,3,01,19,04,06,09,03,17,31,,,,,1.51,0.99,1.14*06
$GPGSV,3,1,11,01,06,159,08,03,42,105,31,04,76,081,33,06,50,294,17*7C
$GPGSV,3,2,11,07,08,182,,09,62,230,26,11,20,315,16,17,08,228,11*70
$GPGSV,3,3,11,19,20,250,26,26,08,074,,31,13,035,16*4E
$GPRMC,133415.00,A,5228.77581,N,01325.34819,E,0.547,,300822,,,A*7F
$GPRMC,133416.00,A,5228.77585,N,01325.34815,E,0.241,,300822,,,A*75
$GPRMC,133417.00,A,5228.77601,N,01325.34830,E,0.124,,300822,,,A*7C
$GPRMC,133418.00,A,5228.77622,N,01325.34774,E,1.137,,300822,,,A*7E
$GPRMC,133419.00,A,5228.77684,N,01325.34752,E,1.174,4.34,300822,,,A*6D
$GPGGA,133419.00,5228.77684,N,01325.34752,E,1,08,0.99,52.9,M,42.2,M,,*66
$GPGSA,A,3,01,19,04,06,09,03,17,31,,,,,1.50,0.99,1.14*07
$GPGSV,3,1,11,01,06,159,08,03,42,105,26,04,76,081,27,06,50,294,21*7A
$GPGSV,3,2,11,07,08,182,,09,62,230,39,11,20,315,20,17,08,228,08*73
$GPGSV,3,3,11,19,19,249,31,26,08,074,,31,13,035,09*44
$GPRMC,133420.00,A,5228.77695,N,01325.34756,E,0.991,,300822,,,A*7C
$GPRMC,133421.00,A,5228.77692,N,01325.34745,E,0.637,,300822,,,A*7B
$GPRMC,133422.00,A,5228.77749,N,01325.34739,E,0.856,,300822,,,A*7D
$GPRMC,133423.00,A,5228.77840,N,01325.34711,E,1.256,357.88,300822,,,A*64
$GPRMC,133424.00,A,5228.77932,N,01325.34679,E,1.582,350.98,300822,,,A*60
$GPGGA,133424.00,5228.77932,N,01325.34679,E,1,08,0.99,53.2,M,42.2,M,,*68
$GPGSA,A,3,01,19,04,06,09,03,17,31,,,,,1.50,0.99,1.14*07
$GPGSV,3,1,11,01,06,159,09,03,42,105,32,04,76,081,24,06,50,294,20*7C
$GPGSV,3,2,11,07,08,182,,09,62,230,40,11,20,315,18,17,08,228,11*7E
$GPGSV,3,3,11,19,19,249,33,26,09,074,,31,13,035,11*4E
$GPRMC,133425.00,A,5228.78014,N,01325.34699,E,1.557,354.80,300822,,,A*68
$GPRMC,133426.00,A,5228.78104,N,01325.34687,E,1.786,351.85,300822,,,A*6A
$GPRMC,133427.00,A,5228.78136,N,01325.34682,E,1.528,353.13,300822,,,A*64
$GPRMC,133428.00,A,5228.78247,N,01325.34676,E,2.073,357.55,300822,,,A*6B
$GPRMC,133429.00,A,5228.78250,N,01325.34665,E,1.619,355.60,300822,,,A*63
$GPGGA,133429.00,5228.78250,N,01325.34665,E,1,07,1.03,53.4,M,42.2,M,,*63
$GPGSA,A,3,01,19,04,06,09,03,31,,,,,,1.61,1.03,1.24*02
$GPGSV,3,1,11,01,06,159,08,03,42,105,32,04,76,081,34,06,50,294,18*77
$GPGSV,3,2,11,07,08,182,,09,62,230,30,11,20,315,19,17,08,228,06*7E
$GPGSV,3,3,11,19,19,249,37,26,09,074,,31,13,035,09*43
$GPRMC,133430.00,A,5228.78258,N,01325.34658,E,1.304,352.33,300822,,,A*65
$GPRMC,133431.00,A,5228.78263,N,01325.34650,E,1.020,,300822,,,A*7B
$GPRMC,133432.00,A,5228.78201,N,01325.34659,E,0.631,,300822,,,A*72
$GPRMC,133433.00,A,5228.78206,N,01325.34644,E,0.671,,300822,,,A*7C
$GPRMC,133434.00,A,5228.78210,N,01325.34641,E,0.690,,300822,,,A*76
$GPGGA,133434.00,5228.78210,N,01325.34641,E,1,08,0.99,53.5,M,42.2,M,,*61
$GPGSA,A,3,01,19,04,06,09,03,17,31,,,,,1.50,0.99,1.13*00
$GPGSV,3,1,11,01,06,159,08,03,42,105,31,04,76,081,26,06,50,294,19*76
$GPGSV,3,2,11,07,08,182,,09,62,230,34,11,20,315,21,17,08,228,11*77
$GPGSV,3,3,11,19,19,249,33,26,09,074,,31,13,035,11*4E
$GPRMC,133435.00,A,5228.78172,N,01325.34662,E,0.415,,300822,,,A*7E
$GPRMC,133436.00,A,5228.78159,N,01325.34665,E,0.204,,300822,,,A*75
$GPRMC,133437.00,A,5228.78142,N,01325.34673,E,0.157,,300822,,,A*7C
$GPRMC,133438.00,A,5228.78125,N,01325.34680,E,0.031,,300822,,,A*7F
$GPRMC,133439.00,A,5228.78098,N,01325.34689,E,0.064,,300822,,,A*70
$GPGGA,133439.00,5228.78098,N,01325.34689,E,1,08,0.99,53.2,M,42.2,M,,*6D
$GPGSA,A,3,01,19,04,06,09,03,17,31,,,,,1.50,0.99,1.13*00
$GPGSV,3,1,11,01,06,159,11,03,42,105,30,04,76,081,25,06,50,294,23*75
$GPGSV,3,2,11,07,08,182,,09,62,230,36,11,20,315,23,17,08,228,14*72
$GPGSV,3,3,11,19,19,249,33,26,09,074,,31,13,035,09*47
$GPRMC,133440.00,A,5228.78075,N,01325.34692,E,0.139,,300822,,,A*7E
$GPRMC,133441.00,A,5228.78010,N,01325.34709,E,0.308,,300822,,,A*7F
$GPRMC,133442.00,A,5228.78007,N,01325.34713,E,0.123,,300822,,,A*7A
$GPRMC,133443.00,A,5228.77998,N,01325.34715,E,0.071,,300822,,,A*7B
$GPRMC,133444.00,A,5228.78006,N,01325.34713,E,0.120,,300822,,,A*7E
$GPGGA,133444.00,5228.78006,N,01325.34713,E,1,08,0.99,53.4,M,42.2,M,,*64
$GPGSA,A,3,01,19,04,06,09,03,17,31,,,,,1.50,0.99,1.13*00
$GPGSV,3,1,11,01,06,159,09,03,42,105,32,04,76,081,27,06,50,294,25*7A
$GPGSV,3,2,11,07,08,182,,09,62,230,36,11,20,315,22,17,08,228,16*71
$GPGSV,3,3,11,19,19,249,34,26,09,074,,31,13,035,10*48
$GPRMC,133445.00,A,5228.77988,N,01325.34717,E,0.210,,300822,,,A*7B
$GPRMC,133446.00,A,5228.77970,N,01325.34726,E,0.182,,300822,,,A*75
$GPRMC,133447.00,A,5228.77947,N,01325.34734,E,0.134,,300822,,,A*7E
$GPRMC,133448.00,A,5228.77932,N,01325.34738,E,0.042,,300822,,,A*7F
$GPRMC,133449.00,A,5228.77914,N,01325.34741,E,0.043,,300822,,,A*75
$GPGGA,133449.00,5228.77914,N,01325.34741,E,1,07,1.27,53.5,M,42.2,M,,*61
$GPGSA,A,3,19,04,06,09,03,17,31,,,,,,1.78,1.27,1.25*0A
$GPGSV,3,1,11,01,06,159,11,03,41,105,32,04,76,081,27,06,50,293,26*74
$GPGSV,3,2,11,07,08,182,,09,62,230,36,11,20,315,20,17,08,228,18*7D
$GPGSV,3,3,11,19,19,249,31,26,09,074,,31,13,035,12*4F
$GPRMC,133450.00,A,5228.77850,N,01325.34753,E,0.105,,300822,,,A*7C
$GPRMC,133451.00,A,5228.77842,N,01325.34761,E,0.102,,300822,,,A*78
$GPRMC,133452.00,A,5228.77822,N,01325.34767,E,0.030,,300822,,,A*7B
$GPRMC,133453.00,A,5228.77763,N,01325.34784,E,0.089,,300822,,,A*7F
$GPRMC,133454.00,A,5228.77743,N,01325.34789,E,0.069,,300822,,,A*79
$GPGGA,133454.00,5228.77743,N,01325.34789,E,1,08,0.99,53.3,M,42.2,M,,*68
$GPGSA,A,3,01,19,04,06,09,03,17,31,,,,,1.50,0.99,1.13*00
$GPGSV,3,1,11,01,06,159,12,03,41,105,32,04,76,081,24,06,50,293,27*75
$GPGSV,3,2,11,07,08,182,,09,62,230,37,11,20,315,19,17,08,228,11*7F
$GPGSV,3,3,11,19,19,249,32,26,09,074,,31,13,035,15*4B
$GPRMC,133455.00,A,5228.77728,N,01325.34791,E,0.064,,300822,,,A*71
$GPRMC,133456.00,A,5228.77731,N,01325.34788,E,0.024,,300822,,,A*76
$GPRMC,133457.00,A,5228.77726,N,01325.34789,E,0.041,,300822,,,A*73
$GPRMC,133458.00,A,5228.77719,N,01325.34789,E,0.087,,300822,,,A*7A
$GPRMC,133459.00,A,5228.77703,N,01325.34787,E,0.043,,300822,,,A*76
$GPGGA,133459.00,5228.77703,N,01325.34787,E,1,07,1.27,53.5,M,42.2,M,,*62
$GPGSA,A,3,19,04,06,09,03,17,31,,,,,,1.78,1.27,1.24*0B
$GPGSV,3,1,11,01,06,159,07,03,41,105,32,04,76,081,22,06,50,293,26*76
$GPGSV,3,2,11,07,08,182,,09,62,230,35,11,20,315,17,17,07,227,13*71
$GPGSV,3,3,11,19,19,249,33,26,09,074,,31,13,035,08*46
$GPRMC,133500.00,A,5228.77700,N,01325.34791,E,0.027,,300822,,,A*7D
$GPRMC,133501.00,A,5228.77693,N,01325.34793,E,0.056,,300822,,,A*73
$GPRMC,133502.00,A,5228.77680,N,01325.34790,E,0.053,,300822,,,A*74
$GPRMC,133503.00,A,5228.77675,N,01325.34790,E,0.112,,300822,,,A*7B
$GPRMC,133504.00,A,5228.77671,N,01325.34791,E,0.025,,300822,,,A*7C
$GPGGA,133504.00,5228.77671,N,01325.34791,E,1,08,0.99,53.9,M,42.2,M,,*6F
$GPGSA,A,3,01,19,04,06,09,03,17,31,,,,,1.50,0.99,1.13*00
$GPGSV,3,1,11,01,06,159,08,03,41,105,31,04,76,081,17,06,50,293,26*7C
$GPGSV,3,2,11,07,08,182,,09,62,230,34,11,20,315,17,17,07,227,11*72
$GPGSV,3,3,11,19,19,249,33,26,09,074,,31,13,035,10*4F
$GPRMC,133505.00,A,5228.77646,N,01325.34799,E,0.054,,300822,,,A*77
$GPRMC,133506.00,A,5228.77637,N,01325.34801,E,0.028,,300822,,,A*77
$GPRMC,133507.00,A,5228.77626,N,01325.34799,E,0.123,,300822,,,A*72
$GPRMC,133508.00,A,5228.77604,N,01325.34805,E,0.084,,300822,,,A*7B
$GPRMC,133509.00,A,5228.77600,N,01325.34811,E,0.129,,300822,,,A*7D
$GPGGA,133509.00,5228.77600,N,01325.34811,E,1,07,1.00,54.0,M,42.2,M,,*63
$GPGSA,A,3,01,19,06,09,03,17,31,,,,,,1.66,1.00,1.33*02
$GPGSV,3,1,11,01,06,159,11,03,41,105,31,04,76,081,10,06,50,293,26*73
$GPGSV,3,2,11,07,08,182,,09,62,230,34,11,20,315,17,17,07,227,16*75
$GPGSV,3,3,11,19,19,249,31,26,09,073,,31,13,035,08*43
$GPRMC,133510.00,A,5228.77592,N,01325.34819,E,0.009,,300822,,,A*76
$GPRMC,133511.00,A,5228.77588,N,01325.34819,E,0.041,,300822,,,A*70
$GPRMC,133512.00,A,5228.77583,N,01325.34824,E,0.152,,300822,,,A*75
$GPRMC,133513.00,A,5228.77580,N,01325.34828,E,0.182,,300822,,,A*76
$GPRMC,133514.00,A,5228.77613,N,01325.34825,E,0.061,,300822,,,A*79
$GPGGA,133514.00,5228.77613,N,01325.34825,E,1,08,0.99,53.7,M,42.2,M,,*64
$GPGSA,A,3,01,19,04,06,09,03,17,31,,,,,1.50,0.99,1.13*00
$GPGSV,3,1,11,01,06,159,09,03,41,105,27,04,76,081,31,06,50,293,20*78
$GPGSV,3,2,11,07,08,182,,09,62,230,34,11,20,315,14,17,07,227,13*73
$GPGSV,3,3,11,19,19,249,37,26,09,073,,31,13,035,13*4F
$GPRMC,133515.00,A,5228.77635,N,01325.34838,E,0.337,,300822,,,A*70
$GPRMC,133516.00,A,5228.77654,N,01325.34841,E,0.230,,300822,,,A*7C
$GPRMC,133517.00,A,5228.77641,N,01325.34852,E,0.086,,300822,,,A*74
$GPRMC,133518.00,A,5228.77630,N,01325.34862,E,0.232,,300822,,,A*73
$GPRMC,133519.00,A,5228.77612,N,01325.34880,E,0.443,,300822,,,A*7E
$GPGGA,133519.00,5228.77612,N,01325.34880,E,1,07,1.27,52.6,M,42.2,M,,*6C
$GPGSA,A,3,19,04,06,09,03,17,31,,,,,,1.77,1.27,1.24*04
$GPGSV,3,1,11,01,06,159,06,03,41,105,25,04,76,081,28,06,50,293,16*78
$GPGSV,3,2,11,07,08,182,,09,62,230,33,11,20,315,17,17,07,227,10*74
$GPGSV,3,3,11,19,19,249,32,26,09,073,,31,13,035,11*48
$GPRMC,133520.00,A,5228.77624,N,01325.34868,E,0.065,,300822,,,A*77
$GPRMC,133521.00,A,5228.77627,N,01325.34868,E,0.086,,300822,,,A*78
$GPRMC,133522.00,A,5228.77629,N,01325.34865,E,0.032,,300822,,,A*77
$GPRMC,133523.00,A,5228.77624,N,01325.34861,E,0.048,,300822,,,A*72
$GPRMC,133524.00,A,5228.77626,N,01325.34856,E,0.134,,300822,,,A*79
$GPGGA,133524.00,5228.77626,N,01325.34856,E,1,08,0.99,53.1,M,42.2,M,,*63
$GPGSA,A,3,01,19,04,06,09,03,17,31,,,,,1.50,0.99,1.13*00
$GPGSV,3,1,11,01,06,159,09,03,41,105,34,04,76,081,29,06,50,293,15*75
$GPGSV,3,2,11,07,08,182,,09,62,230,32,11,20,315,17,17,07,227,10*75
$GPGSV,3,3,11,19,19,249,30,26,09,073,,31,13,035,12*49
$GPRMC,133525.00,A,5228.77637,N,01325.34855,E,0.136,,300822,,,A*79
$GPRMC,133526.00,A,5228.77595,N,01325.34871,E,0.504,,300822,,,A*72
$GPRMC,133527.00,A,5228.77587,N,01325.34863,E,0.237,,300822,,,A*74
$GPRMC,133528.00,A,5228.77572,N,01325.34856,E,0.181,,300822,,,A*79
$GPRMC,133529.00,A,5228.77605,N,01325.34862,E,0.209,,300822,,,A*7F
$GPGGA,133529.00,5228.77605,N,01325.34862,E,1,08,0.99,53.3,M,42.2,M,,*6A
$GPGSA,A,3,01,19,04,06,09,03,17,31,,,,,1.50,0.99,1.13*00
$GPGSV,3,1,11,01,06,159,09,03,41,105,31,04,76,081,26,06,50,293,14*7E
$GPGSV,3,2,11,07,08,182,,09,62,230,31,11,20,315,18,17,07,227,09*71
$GPGSV,3,3,11,19,19,249,29,26,09,073,,31,13,035,09*4B
$GPRMC,133530.00,A,5228.77637,N,01325.34861,E,0.185,,300822,,,A*72
$GPRMC,133531.00,A,5228.77621,N,01325.34861,E,0.034,,300822,,,A*7F
$GPRMC,133532.00,A,5228.77528,N,01325.34877,E,0.949,,300822,,,A*72
$GPRMC,133533.00,A,5228.77499,N,01325.34878,E,0.857,,300822,,,A*79
$GPRMC,133534.00,A,5228.77452,N,01325.34898,E,1.085,,300822,,,A*71
$GPGGA,133534.00,5228.77452,N,01325.34898,E,1,08,0.99,53.4,M,42.2,M,,*64
$GPGSA,A,3,01,19,04,06,09,03,17,31,,,,,1.50,0.99,1.12*01
$GPGSV,3,1,11,01,06,159,08,03,41,105,28,04,75,080,32,06,50,293,20*77
$GPGSV,3,2,11,07,09,182,,09,62,230,33,11,20,315,16,17,07,227,07*72
$GPGSV,3,3,11,19,19,249,26,26,09,073,,31,13,035,09*44
$GPRMC,133535.00,A,5228.77488,N,01325.34907,E,0.237,,300822,,,A*7A
$GPRMC,133536.00,A,5228.77505,N,01325.34901,E,0.087,,300822,,,A*72
$GPRMC,133537.00,A,5228.77458,N,01325.34901,E,0.562,,300822,,,A*74
$GPRMC,133538.00,A,5228.77400,N,01325.34909,E,0.855,,300822,,,A*77
$GPRMC,133539.00,A,5228.77418,N,01325.34925,E,0.477,,300822,,,A*7D
$GPGGA,133539.00,5228.77418,N,01325.34925,E,1,08,0.99,53.1,M,42.2,M,,*65
$GPGSA,A,3,01,19,04,06,09,03,17,31,,,,,1.49,0.99,1.12*09
$GPGSV,3,1,11,01,06,159,10,03,41,105,26,04,75,080,32,06,50,293,17*74
$GPGSV,3,2,11,07,09,182,,09,63,230,32,11,20,315,19,17,07,227,08*72
$GPGSV,3,3,11,19,19,249,26,26,09,073,,31,13,035,11*4D
$GPRMC,133540.00,A,5228.77395,N,01325.34917,E,0.707,,300822,,,A*74
$GPRMC,133541.00,A,5228.77380,N,01325.34946,E,0.990,,300822,,,A*75
$GPRMC,133542.00,A,5228.77383,N,01325.34979,E,1.039,,300822,,,A*72
$GPRMC,133543.00,A,5228.77382,N,01325.35032,E,1.281,,300822,,,A*74
$GPRMC,133544.00,A,5228.77370,N,01325.35065,E,0.924,,300822,,,A*79
$GPGGA,133544.00,5228.77370,N,01325.35065,E,1,08,0.99,52.9,M,42.2,M,,*63
$GPGSA,A,3,01,19,04,06,09,03,17,31,,,,,1.49,0.99,1.12*09
$GPGSV,3,1,11,01,06,159,10,03,41,105,27,04,75,080,32,06,50,293,19*7B
$GPGSV,3,2,11,07,09,182,,09,63,230,35,11,20,315,17,17,07,227,10*72
$GPGSV,3,3,11,19,19,249,25,26,09,073,,31,13,035,11*4E
$GPRMC,133545.00,A,5228.77397,N,01325.35016,E,0.350,,300822,,,A*7C
$GPRMC,133546.00,A,5228.77424,N,01325.35015,E,0.249,,300822,,,A*7A
$GPRMC,133547.00,A,5228.77451,N,01325.34989,E,0.276,,300822,,,A*78
$GPRMC,133548.00,A,5228.77478,N,01325.34992,E,0.263,,300822,,,A*72
$GPRMC,133549.00,A,5228.77507,N,01325.35016,E,0.732,,300822,,,A*7F
$GPGGA,133549.00,5228.77507,N,01325.35016,E,1,08,0.99,53.5,M,42.2,M,,*61
$GPGSA,A,3,01,19,04,06,09,03,17,31,,,,,1.49,0.99,1.12*09
$GPGSV,3,1,11,01,06,159,09,03,41,105,34,04,75,080,22,06,50,293,22*78
$GPGSV,3,2,11,07,09,182,,09,63,230,37,11,20,315,24,17,07,227,14*74
$GPGSV,3,3,11,19,19,249,21,26,09,073,,31,13,035,16*4D
$GPRMC,133550.00,A,5228.77477,N,01325.35028,E,0.215,,300822,,,A*7C
$GPRMC,133551.00,A,5228.77451,N,01325.35035,E,0.211,,300822,,,A*71
$GPRMC,133552.00,A,5228.77427,N,01325.35018,E,0.616,,300822,,,A*7F
$GPRMC,133553.00,A,5228.77417,N,01325.35003,E,0.466,,300822,,,A*72
$GPRMC,133554.00,A,5228.77409,N,01325.34995,E,0.351,,300822,,,A*7E
$GPGGA,133554.00,5228.77409,N,01325.34995,E,1,08,0.99,53.5,M,42.2,M,,*61
$GPGSA,A,3,01,19,04,06,09,03,17,31,,,,,1.49,0.99,1.12*09
$GPGSV,3,1,11,01,06,159,12,03,41,105,26,04,75,080,29,06,50,293,22*7A
$GPGSV,3,2,11,07,09,182,,09,63,230,34,11,20,315,20,17,07,227,09*7F
$GPGSV,3,3,11,19,19,249,25,26,09,073,17,31,13,035,12*4B
$GPRMC,133555.00,A,5228.77386,N,01325.34982,E,0.617,,300822,,,A*7E
$GPRMC,133556.00,A,5228.77457,N,01325.34914,E,1.487,,300822,,,A*73
$GPRMC,133557.00,A,5228.77546,N,01325.34941,E,1.683,,300822,,,A*75
$GPRMC,133558.00,A,5228.77669,N,01325.34905,E,2.797,345.32,300822,,,A*6E
$GPRMC,133559.00,A,5228.77704,N,01325.34863,E,2.660,340.78,300822,,,A*66
$GPGGA,133559.00,5228.77704,N,01325.34863,E,1,08,0.99,56.5,M,42.2,M,,*6F
$GPGSA,A,3,01,19,04,06,09,03,17,31,,,,,1.49,0.99,1.12*09
$GPGSV,3,1,11,01,06,159,07,03,41,105,33,04,75,080,35,06,50,293,22*77
$GPGSV,3,2,11,07,09,182,,09,63,230,27,11,20,315,19,17,07,227,09*77
$GPGSV,3,3,11,19,19,249,25,26,09,073,17,31,12,035,11*49
$GPRMC,133600.00,A,5228.77822,N,01325.34826,E,3.614,339.06,300822,,,A*66
$GPRMC,133601.00,A,5228.77902,N,01325.34765,E,4.035,336.72,300822,,,A*62
$GPRMC,133602.00,A,5228.77936,N,01325.34717,E,3.771,335.35,300822,,,A*63
$GPRMC,133603.00,A,5228.77958,N,01325.34593,E,3.460,330.56,300822,,,A*67
$GPRMC,133604.00,A,5228.77919,N,01325.34485,E,2.628,,300822,,,A*71
$GPGGA,133604.00,5228.77919,N,01325.34485,E,1,08,0.99,60.0,M,42.2,M,,*62
$GPGSA,A,3,01,19,04,06,09,03,17,31,,,,,1.49,0.99,1.12*09
$GPGSV,3,1,11,01,06,159,09,03,41,105,36,04,75,080,27,06,50,293,21*7C
$GPGSV,3,2,11,07,09,182,,09,63,230,28,11,20,315,19,17,07,227,11*71
$GPGSV,3,3,11,19,19,249,24,26,09,073,17,31,12,035,11*48
$GPRMC,133605.00,A,5228.77919,N,01325.34400,E,2.535,,300822,,,A*72
$GPRMC,133606.00,A,5228.77995,N,01325.34356,E,2.818,326.54,300822,,,A*6B
$GPRMC,133607.00,A,5228.78046,N,01325.34294,E,2.622,325.59,300822,,,A*64
$GPRMC,133608.00,A,5228.78013,N,01325.34169,E,2.880,317.75,300822,,,A*63
$GPRMC,133609.00,A,5228.77985,N,01325.34023,E,2.642,,300822,,,A*7D
$GPGGA,133609.00,5228.77985,N,01325.34023,E,1,08,0.99,63.6,M,42.2,M,,*67
$GPGSA,A,3,01,19,04,06,09,03,17,31,,,,,1.49,0.99,1.12*09
$GPGSV,3,1,11,01,06,159,08,03,41,105,33,04,75,080,35,06,50,293,22*78
$GPGSV,3,2,11,07,09,182,,09,63,230,29,11,20,315,18,17,07,227,07*76
$GPGSV,3,3,11,19,19,249,22,26,09,073,15,31,12,035,12*4F
$GPRMC,133610.00,A,5228.77944,N,01325.33912,E,2.503,,300822,,,A*72
$GPRMC,133611.00,A,5228.77992,N,01325.33805,E,2.524,,300822,,,A*7A
$GPRMC,133612.00,A,5228.78030,N,01325.33662,E,2.976,310.27,300822,,,A*6A
$GPRMC,133613.00,A,5228.78080,N,01325.33516,E,3.458,304.42,300822,,,A*66
$GPRMC,133614.00,A,5228.78033,N,01325.33324,E,3.633,294.87,300822,,,A*60
$GPGGA,133614.00,5228.78033,N,01325.33324,E,1,07,1.08,69.7,M,42.2,M,,*6E
$GPGSA,A,3,01,19,04,09,03,17,31,,,,,,1.58,1.08,1.15*01
$GPGSV,3,1,11,01,06,159,13,03,41,105,42,04,75,080,36,06,50,293,20*75
$GPGSV,3,2,11,07,09,182,,09,63,230,29,11,20,315,19,17,07,227,10*71
$GPGSV,3,3,11,19,19,249,22,26,09,073,18,31,12,035,16*46
$GPRMC,133615.00,A,5228.78125,N,01325.33161,E,3.818,295.14,300822,,,A*68
$GPRMC,133616.00,A,5228.78123,N,01325.32998,E,3.082,291.88,300822,,,A*68
$GPRMC,133617.00,A,5228.78080,N,01325.32827,E,3.311,285.52,300822,,,A*6F
$GPRMC,133618.00,A,5228.78192,N,01325.32758,E,3.033,294.37,300822,,,A*65
$GPRMC,133619.00,A,5228.78259,N,01325.32620,E,2.987,299.68,300822,,,A*6E
$GPGGA,133619.00,5228.78259,N,01325.32620,E,1,06,1.62,72.4,M,42.2,M,,*69
$GPGSA,A,3,19,04,09,03,17,31,,,,,,,2.13,1.62,1.38*0F
$GPGSV,3,1,11,01,06,159,06,03,41,106,33,04,75,079,36,06,50,292,21*72
$GPGSV,3,2,11,07,09,182,,09,63,230,27,11,20,315,22,17,07,227,11*76
$GPGSV,3,3,11,19,19,249,22,26,09,073,22,31,12,035,12*4B
$GPRMC,133620.00,A,5228.78406,N,01325.32566,E,3.122,320.63,300822,,,A*67
$GPRMC,133621.00,A,5228.78482,N,01325.32464,E,3.107,327.18,300822,,,A*65
$GPRMC,133622.00,A,5228.78531,N,01325.32369,E,2.845,330.12,300822,,,A*67
$GPRMC,133623.00,A,5228.78530,N,01325.32264,E,2.613,331.23,300822,,,A*65
$GPRMC,133624.00,A,5228.78434,N,01325.32067,E,2.269,,300822,,,A*71
$GPGGA,133624.00,5228.78434,N,01325.32067,E,1,08,0.99,75.8,M,42.2,M,,*6F
$GPGSA,A,3,01,19,04,06,09,03,17,31,,,,,1.49,0.99,1.12*09
$GPGSV,3,1,11,01,06,159,07,03,41,106,40,04,75,079,36,06,50,292,22*74
$GPGSV,3,2,11,07,09,182,,09,63,230,35,11,20,315,20,17,07,227,09*7E
$GPGSV,3,3,11,19,19,249,24,26,09,073,18,31,12,035,11*47
$GPRMC,133625.00,A,5228.78490,N,01325.31988,E,1.794,,300822,,,A*71
$GPRMC,133626.00,A,5228.78455,N,01325.31891,E,1.916,,300822,,,A*76
$GPRMC,133627.00,A,5228.78481,N,01325.31790,E,1.959,,300822,,,A*7B
$GPRMC,133628.00,A,5228.78479,N,01325.31615,E,2.396,326.23,300822,,,A*6D
$GPRMC,133629.00,A,5228.78462,N,01325.31461,E,2.060,,300822,,,A*75
$GPGGA,133629.00,5228.78462,N,01325.31461,E,1,08,0.99,76.6,M,42.2,M,,*6D
$GPGSA,A,3,01,19,04,06,09,03,17,31,,,,,1.49,0.99,1.12*09
$GPGSV,3,1,11,01,06,159,08,03,41,106,29,04,75,079,28,06,50,292,25*7C
$GPGSV,3,2,11,07,09,182,,09,63,230,29,11,20,315,22,17,07,227,10*79
$GPGSV,3,3,11,19,19,249,27,26,09,073,17,31,12,035,12*48
$GPRMC,133630.00,A,5228.78423,N,01325.31366,E,0.806,,300822,,,A*72
$GPRMC,133631.00,A,5228.78430,N,01325.31339,E,0.256,,300822,,,A*74
$GPRMC,133632.00,A,5228.78472,N,01325.31304,E,0.574,,300822,,,A*78
$GPRMC,133633.00,A,5228.78392,N,01325.31207,E,0.595,,300822,,,A*7D
$GPRMC,133634.00,A,5228.78271,N,01325.31025,E,2.216,268.61,300822,,,A*6F
$GPGGA,133634.00,5228.78271,N,01325.31025,E,1,08,0.99,76.2,M,42.2,M,,*65
$GPGSA,A,3,01,19,04,06,09,03,17,31,,,,,1.49,0.99,1.12*09
$GPGSV,3,1,11,01,06,159,10,03,41,106,26,04,75,079,29,06,50,292,33*7C
$GPGSV,3,2,11,07,09,182,,09,63,230,35,11,20,315,25,17,07,227,13*70
$GPGSV,3,3,11,19,19,249,24,26,09,073,19,31,12,035,20*44
$GPRMC,133635.00,A,5228.78270,N,01325.30905,E,1.696,,300822,,,A*7F
$GPRMC,133636.00,A,5228.78307,N,01325.30789,E,1.272,,300822,,,A*79
$GPRMC,133637.00,A,5228.78478,N,01325.30610,E,1.273,,300822,,,A*77
$GPRMC,133638.00,A,5228.78460,N,01325.30494,E,1.332,,300822,,,A*7B
$GPRMC,133639.00,A,5228.78420,N,01325.30413,E,1.005,,300822,,,A*76
$GPGGA,133639.00,5228.78420,N,01325.30413,E,1,08,0.99,76.3,M,42.2,M,,*6B
$GPGSA,A,3,01,19,04,06,09,03,17,31,,,,,1.49,0.99,1.11*0A
$GPGSV,3,1,11,01,06,159,08,03,41,106,22,04,75,079,25,06,50,292,32*7C
$GPGSV,3,2,11,07,09,182,17,09,63,230,29,11,20,315,27,17,07,227,10*7A
$GPGSV,3,3,11,19,19,249,22,26,09,073,19,31,12,035,19*48
$GPRMC,133640.00,A,5228.78409,N,01325.30416,E,0.684,,300822,,,A*78
$GPRMC,133641.00,A,5228.78352,N,01325.30389,E,0.981,,300822,,,A*7B
$GPRMC,133642.00,A,5228.78422,N,01325.30336,E,1.576,,300822,,,A*79
$GPRMC,133643.00,A,5228.78410,N,01325.30303,E,1.635,,300822,,,A*7B
$GPRMC,133644.00,A,5228.78317,N,01325.30332,E,1.593,,300822,,,A*71
$GPGGA,133644.00,5228.78317,N,01325.30332,E,1,08,0.99,78.4,M,42.2,M,,*6F
$GPGSA,A,3,01,19,04,06,09,03,17,31,,,,,1.49,0.99,1.11*0A
$GPGSV,3,1,11,01,06,159,13,03,41,106,26,04,75,079,30,06,50,292,27*72
$GPGSV,3,2,11,07,09,182,17,09,63,230,28,11,20,315,31,17,07,227,11*7D
$GPGSV,3,3,11,19,19,249,22,26,09,073,13,31,12,035,17*4C
$GPRMC,133645.00,A,5228.78070,N,01325.30426,E,3.568,188.13,300822,,,A*6B
$GPRMC,133646.00,A,5228.77876,N,01325.30490,E,4.088,166.33,300822,,,A*6A
$GPRMC,133647.00,A,5228.77633,N,01325.30568,E,5.177,158.56,300822,,,A*6C
$GPRMC,133648.00,A,5228.77338,N,01325.30640,E,6.010,157.85,300822,,,A*66
$GPRMC,133649.00,A,5228.77151,N,01325.30669,E,5.582,160.36,300822,,,A*60
$GPGGA,133649.00,5228.77151,N,01325.30669,E,1,08,0.99,84.4,M,42.2,M,,*65
$GPGSA,A,3,01,19,04,06,09,03,17,31,,,,,1.49,0.99,1.11*0A
$GPGSV,3,1,11,01,06,159,10,03,41,106,27,04,75,079,30,06,50,292,27*70
$GPGSV,3,2,11,07,09,182,18,09,63,230,28,11,20,315,28,17,07,227,11*7A
$GPGSV,3,3,11,19,19,249,21,26,09,073,,31,12,035,18*42
$GPRMC,133650.00,A,5228.76981,N,01325.30711,E,5.539,161.23,300822,,,A*67
$GPRMC,133651.00,A,5228.76789,N,01325.30814,E,5.951,159.62,300822,,,A*66
$GPRMC,133652.00,A,5228.76555,N,01325.30822,E,6.014,162.51,300822,,,A*60
$GPRMC,133653.00,A,5228.76393,N,01325.30716,E,5.070,170.53,300822,,,A*65
$GPRMC,133654.00,A,5228.76091,N,01325.30752,E,6.456,173.86,300822,,,A*6B
$GPGGA,133654.00,5228.76091,N,01325.30752,E,1,08,0.99,91.5,M,42.2,M,,*69
$GPGSA,A,3,01,19,04,06,09,03,17,31,,,,,1.49,0.99,1.11*0A
$GPGSV,3,1,11,01,06,159,12,03,41,106,24,04,75,079,29,06,50,292,26*78
$GPGSV,3,2,11,07,09,182,15,09,63,230,30,11,20,315,22,17,07,227,09*7D
$GPGSV,3,3,11,19,19,249,19,26,09,073,,31,12,035,16*47
$GPRMC,133655.00,A,5228.75934,N,01325.30810,E,6.012,171.88,300822,,,A*6E
$GPRMC,133656.00,A,5228.75713,N,01325.30893,E,6.005,168.21,300822,,,A*60
$GPRMC,133657.00,A,5228.75609,N,01325.30849,E,5.117,170.79,300822,,,A*69
$GPRMC,133658.00,A,5228.75385,N,01325.30849,E,5.473,172.50,300822,,,A*69
$GPRMC,133659.00,A,5228.74902,N,01325.30993,E,7.071,171.24,300822,,,A*6E
$GPGGA,133659.00,5228.74902,N,01325.30993,E,1,07,1.03,96.2,M,42.2,M,,*6B
$GPGSA,A,3,01,19,04,06,09,03,31,,,,,,1.59,1.03,1.21*0C
$GPGSV,3,1,11,01,05,159,09,03,41,106,35,04,75,079,28,06,50,292,23*75
$GPGSV,3,2,11,07,09,182,15,09,63,230,35,11,20,315,26,17,07,227,07*72
$GPGSV,3,3,11,19,19,249,15,26,09,073,,31,12,035,20*4E
$GPRMC,133700.00,A,5228.74602,N,01325.31048,E,6.821,176.77,300822,,,A*6F
$GPRMC,133701.00,A,5228.74372,N,01325.31041,E,6.739,180.20,300822,,,A*68
$GPRMC,133702.00,A,5228.74126,N,01325.30991,E,6.519,187.31,300822,,,A*6A
$GPRMC,133703.00,A,5228.73899,N,01325.30867,E,6.774,192.54,300822,,,A*67
$GPRMC,133704.00,A,5228.73677,N,01325.30703,E,6.922,196.26,300822,,,A*6F
$GPGGA,133704.00,5228.73677,N,01325.30703,E,1,08,1.26,96.9,M,42.2,M,,*6C
$GPGSA,A,3,01,19,04,06,09,03,17,31,,,,,1.75,1.26,1.22*00
$GPGSV,3,1,11,01,05,159,08,03,40,106,32,04,75,078,33,06,51,292,31*7B
$GPGSV,3,2,11,07,09,182,13,09,63,230,30,11,20,315,29,17,07,227,11*79
$GPGSV,3,3,11,19,19,249,26,26,09,073,,31,12,035,20*4E
$GPRMC,133705.00,A,5228.73575,N,01325.30473,E,6.743,192.35,300822,,,A*64
$GPRMC,133706.00,A,5228.73486,N,01325.30378,E,5.843,187.75,300822,,,A*6A
$GPRMC,133707.00,A,5228.73446,N,01325.30276,E,5.760,179.89,300822,,,A*64
$GPRMC,133708.00,A,5228.73324,N,01325.30318,E,4.927,173.89,300822,,,A*67
$GPRMC,133709.00,A,5228.73186,N,01325.30355,E,4.479,167.64,300822,,,A*65
$GPGGA,133709.00,5228.73186,N,01325.30355,E,1,08,0.99,98.0,M,42.2,M,,*6D
$GPGSA,A,3,01,19,04,06,09,03,17,31,,,,,1.48,0.99,1.11*0B
$GPGSV,3,1,11,01,05,159,09,03,40,106,28,04,75,078,27,06,51,292,27*73
$GPGSV,3,2,11,07,09,182,10,09,63,231,33,11,21,315,27,17,07,227,10*76
$GPGSV,3,3,11,19,19,249,21,26,09,073,19,31,12,035,17*45
$GPRMC,133710.00,A,5228.73109,N,01325.30404,E,3.733,161.95,300822,,,A*6B
$GPRMC,133711.00,A,5228.72992,N,01325.30428,E,3.103,158.12,300822,,,A*6F
